{"type":"FeatureCollection","features":[{"type":"Feature","geometry":{"type":"Point","coordinates":[9.501400000000006,40.90596]},"properties":{"stop_id":"1001","stop_name":"Colcò","operator":"ASPO","stop_code":"1001","zone_id":"1001"}},{"type":"Feature","geometry":{"type":"Point","coordinates":[9.504530000000004,40.88899999999999]},"properties":{"stop_id":"1002","stop_name":"Padrongianus","operator":"ASPO","stop_code":"1002","zone_id":"1002"}},{"type":"Feature","geometry":{"type":"Point","coordinates":[9.506620000000005,40.884139999999995]},"properties":{"stop_id":"1003","stop_name":"Castello di Pedres","operator":"ASPO","stop_code":"1003","zone_id":"1003"}},{"type":"Feature","geometry":{"type":"Point","coordinates":[9.505080000000005,40.87079000000001]},"properties":{"stop_id":"1004","stop_name":"V. Fiorita Eliporto","operator":"ASPO","stop_code":"1004","zone_id":"1004"}},{"type":"Feature","geometry":{"type":"Point","coordinates":[9.494280000000005,40.84505000000001]},"properties":{"stop_id":"1005","stop_name":"Loiri","operator":"ASPO","stop_code":"1005","zone_id":"1005"}},{"type":"Feature","geometry":{"type":"Point","coordinates":[9.478220000000004,40.83886]},"properties":{"stop_id":"1006","stop_name":"Zappalli","operator":"ASPO","stop_code":"1006","zone_id":"1006"}},{"type":"Feature","geometry":{"type":"Point","coordinates":[9.462560000000002,40.82203999999999]},"properties":{"stop_id":"1007","stop_name":"Via Nazionale 1","operator":"ASPO","stop_code":"1007","zone_id":"1007"}},{"type":"Feature","geometry":{"type":"Point","coordinates":[9.465060000000003,40.820209999999996]},"properties":{"stop_id":"1008","stop_name":"Via Nazionale 70","operator":"ASPO","stop_code":"1008","zone_id":"1008"}},{"type":"Feature","geometry":{"type":"Point","coordinates":[9.4861433929276,40.959481385335735]},"properties":{"stop_id":"1009","stop_name":"BASA-PARK","operator":"ASPO","stop_code":"1009","zone_id":"090047"}},{"type":"Feature","geometry":{"type":"Point","coordinates":[9.5017,40.928160000000034]},"properties":{"stop_id":"101","stop_name":"Centro Martini Parco","operator":"ASPO","stop_code":"101","zone_id":"101"}},{"type":"Feature","geometry":{"type":"Point","coordinates":[9.56567160337071,40.94328833148978]},"properties":{"stop_id":"1010","stop_name":"V.le Pittulongu","operator":"ASPO","stop_code":"1010","zone_id":"090047"}},{"type":"Feature","geometry":{"type":"Point","coordinates":[9.500499999999999,40.92642999999999]},"properties":{"stop_id":"102","stop_name":"D'Annunzio caserma","operator":"ASPO","stop_code":"102","zone_id":"102"}},{"type":"Feature","geometry":{"type":"Point","coordinates":[9.498610000000005,40.92522]},"properties":{"stop_id":"103","stop_name":"Via D'Annunzio fronte stazione FS","operator":"ASPO","stop_code":"103","zone_id":"103"}},{"type":"Feature","geometry":{"type":"Point","coordinates":[9.496800000000006,40.92472000000001]},"properties":{"stop_id":"104","stop_name":"Necropoli S.Simplicio","operator":"ASPO","stop_code":"104","zone_id":"104"}},{"type":"Feature","geometry":{"type":"Point","coordinates":[9.496360000000003,40.9244]},"properties":{"stop_id":"105","stop_name":"Via San Simplicio,11","operator":"ASPO","stop_code":"105","zone_id":"105"}},{"type":"Feature","geometry":{"type":"Point","coordinates":[9.501480000000004,40.90596]},"properties":{"stop_id":"1051","stop_name":"Colcò agraria","operator":"ASPO","stop_code":"1051","zone_id":"1051"}},{"type":"Feature","geometry":{"type":"Point","coordinates":[9.504560000000005,40.88907999999999]},"properties":{"stop_id":"1052","stop_name":"Padrongianus","operator":"ASPO","stop_code":"1052","zone_id":"1052"}},{"type":"Feature","geometry":{"type":"Point","coordinates":[9.506760000000005,40.88402999999998]},"properties":{"stop_id":"1053","stop_name":"Castello di Pedres","operator":"ASPO","stop_code":"1053","zone_id":"1053"}},{"type":"Feature","geometry":{"type":"Point","coordinates":[9.50533025011723,40.87167859791955]},"properties":{"stop_id":"1054","stop_name":"Vena Fiorita","operator":"ASPO","stop_code":"1054","zone_id":"1054"}},{"type":"Feature","geometry":{"type":"Point","coordinates":[9.494260000000004,40.84494999999999]},"properties":{"stop_id":"1055","stop_name":"Loiri","operator":"ASPO","stop_code":"1055","zone_id":"1055"}},{"type":"Feature","geometry":{"type":"Point","coordinates":[9.477640000000003,40.83839]},"properties":{"stop_id":"1056","stop_name":"Zappalli","operator":"ASPO","stop_code":"1056","zone_id":"1056"}},{"type":"Feature","geometry":{"type":"Point","coordinates":[9.462620000000001,40.82216]},"properties":{"stop_id":"1057","stop_name":"Via Nazionale fr.1","operator":"ASPO","stop_code":"1057","zone_id":"1057"}},{"type":"Feature","geometry":{"type":"Point","coordinates":[9.464870000000003,40.82049000000001]},"properties":{"stop_id":"1058","stop_name":"Via Nazionale fr.70","operator":"ASPO","stop_code":"1058","zone_id":"1058"}},{"type":"Feature","geometry":{"type":"Point","coordinates":[9.496510000000004,40.92298999999999]},"properties":{"stop_id":"106","stop_name":"Mameli 6","operator":"ASPO","stop_code":"106","zone_id":"106"}},{"type":"Feature","geometry":{"type":"Point","coordinates":[9.56541187520351,40.94312339406104]},"properties":{"stop_id":"1060","stop_name":"V.le Pittulongu","operator":"ASPO","stop_code":"1060","zone_id":"090047"}},{"type":"Feature","geometry":{"type":"Point","coordinates":[9.496950000000005,40.92079000000001]},"properties":{"stop_id":"107","stop_name":"Mameli Casermette","operator":"ASPO","stop_code":"107","zone_id":"107"}},{"type":"Feature","geometry":{"type":"Point","coordinates":[9.495680246474146,40.91848814730793]},"properties":{"stop_id":"108","stop_name":"int. via Campidano","operator":"ASPO","stop_code":"108","zone_id":"108"}},{"type":"Feature","geometry":{"type":"Point","coordinates":[9.460820000000004,40.81204999999999]},"properties":{"stop_id":"1091","stop_name":"Cimitero Berchiddeddu","operator":"ASPO","stop_code":"1091","zone_id":"1091"}},{"type":"Feature","geometry":{"type":"Point","coordinates":[9.494350000000004,40.911410000000004]},"properties":{"stop_id":"1195","stop_name":"Via Ferrara civ.46","operator":"ASPO","stop_code":"1195","zone_id":"1195"}},{"type":"Feature","geometry":{"type":"Point","coordinates":[9.494930000000005,40.90883999999999]},"properties":{"stop_id":"1196","stop_name":"Via Ferrara civico 98","operator":"ASPO","stop_code":"1196","zone_id":"1196"}},{"type":"Feature","geometry":{"type":"Point","coordinates":[9.494910000000004,40.90916]},"properties":{"stop_id":"1197","stop_name":"Via Ferrara fronte civico 98","operator":"ASPO","stop_code":"1197","zone_id":"1197"}},{"type":"Feature","geometry":{"type":"Point","coordinates":[9.494430000000003,40.911459999999984]},"properties":{"stop_id":"1198","stop_name":"Via Ferrara civ. 55","operator":"ASPO","stop_code":"1198","zone_id":"1198"}},{"type":"Feature","geometry":{"type":"Point","coordinates":[9.5017,40.92856000000004]},"properties":{"stop_id":"151","stop_name":"Centro Martini","operator":"ASPO","stop_code":"151","zone_id":"151"}},{"type":"Feature","geometry":{"type":"Point","coordinates":[9.500510000000004,40.926280000000006]},"properties":{"stop_id":"152","stop_name":"Via D'Annunzio fronte Carabinieri","operator":"ASPO","stop_code":"152","zone_id":"152"}},{"type":"Feature","geometry":{"type":"Point","coordinates":[9.498590000000005,40.92515]},"properties":{"stop_id":"153","stop_name":"Via D'Annunzio stazione FS","operator":"ASPO","stop_code":"153","zone_id":"153"}},{"type":"Feature","geometry":{"type":"Point","coordinates":[9.497140000000003,40.924680000000016]},"properties":{"stop_id":"154","stop_name":"Necropoli S.Simplicio","operator":"ASPO","stop_code":"154","zone_id":"154"}},{"type":"Feature","geometry":{"type":"Point","coordinates":[9.496440000000005,40.92433]},"properties":{"stop_id":"155","stop_name":"Via San Simplicio 6","operator":"ASPO","stop_code":"155","zone_id":"155"}},{"type":"Feature","geometry":{"type":"Point","coordinates":[9.496530000000005,40.92315]},"properties":{"stop_id":"156","stop_name":"Via Mameli 1","operator":"ASPO","stop_code":"156","zone_id":"156"}},{"type":"Feature","geometry":{"type":"Point","coordinates":[9.496940000000004,40.92110000000001]},"properties":{"stop_id":"157","stop_name":"Mameli fr.Casermette","operator":"ASPO","stop_code":"157","zone_id":"157"}},{"type":"Feature","geometry":{"type":"Point","coordinates":[9.496010000000002,40.918559999999964]},"properties":{"stop_id":"158","stop_name":"Roma fr. Campidano","operator":"ASPO","stop_code":"158","zone_id":"158"}},{"type":"Feature","geometry":{"type":"Point","coordinates":[9.449250000000003,40.80256999999999]},"properties":{"stop_id":"2005","stop_name":"Sa Castanza dir. Mamusi","operator":"ASPO","stop_code":"2005","zone_id":"2005"}},{"type":"Feature","geometry":{"type":"Point","coordinates":[9.454970000000003,40.78573000000001]},"properties":{"stop_id":"2006","stop_name":"Via Trainu Moltu dir. Mamusi","operator":"ASPO","stop_code":"2006","zone_id":"2006"}},{"type":"Feature","geometry":{"type":"Point","coordinates":[9.470670000000007,40.77132000000002]},"properties":{"stop_id":"2007","stop_name":"Mamusi Via Omodeo","operator":"ASPO","stop_code":"2007","zone_id":"2007"}},{"type":"Feature","geometry":{"type":"Point","coordinates":[9.454700000000004,40.78564]},"properties":{"stop_id":"2008","stop_name":"Trainu Moltu dir. Olbia","operator":"ASPO","stop_code":"2008","zone_id":"2008"}},{"type":"Feature","geometry":{"type":"Point","coordinates":[9.449200000000001,40.802350000000004]},"properties":{"stop_id":"2009","stop_name":"Sa Castanza dir. Olbia","operator":"ASPO","stop_code":"2009","zone_id":"2009"}},{"type":"Feature","geometry":{"type":"Point","coordinates":[9.505030000000005,40.929469999999995]},"properties":{"stop_id":"201","stop_name":"Via Dei Lidi fr.5","operator":"ASPO","stop_code":"201","zone_id":"201"}},{"type":"Feature","geometry":{"type":"Point","coordinates":[9.460180000000001,40.81161]},"properties":{"stop_id":"2010","stop_name":"SP n°79 fronte civico 10","operator":"ASPO","stop_code":"2010","zone_id":"2010"}},{"type":"Feature","geometry":{"type":"Point","coordinates":[9.448450000000001,40.78623999999999]},"properties":{"stop_id":"2011","stop_name":"Via Rio sos Campitos dir. Mamusi","operator":"ASPO","stop_code":"2011","zone_id":"2011"}},{"type":"Feature","geometry":{"type":"Point","coordinates":[9.448440000000003,40.78638999999999]},"properties":{"stop_id":"2012","stop_name":"Via Rio sos Campitos dir. Olbia","operator":"ASPO","stop_code":"2012","zone_id":"2012"}},{"type":"Feature","geometry":{"type":"Point","coordinates":[9.470630000000003,40.92383999999999]},"properties":{"stop_id":"2013","stop_name":"Via Gianni Rodari","operator":"ASPO","stop_code":"2013","zone_id":"2013"}},{"type":"Feature","geometry":{"type":"Point","coordinates":[9.466380000000003,40.92685]},"properties":{"stop_id":"2014","stop_name":"Via San Severino","operator":"ASPO","stop_code":"2014","zone_id":"2014"}},{"type":"Feature","geometry":{"type":"Point","coordinates":[9.464810000000003,40.77895999999999]},"properties":{"stop_id":"2015","stop_name":"Battista dir.Mamusi","operator":"ASPO","stop_code":"2015","zone_id":"2015"}},{"type":"Feature","geometry":{"type":"Point","coordinates":[9.464630000000003,40.7793]},"properties":{"stop_id":"2016","stop_name":"Olbia, Via Monte Aspru","operator":"ASPO","stop_code":"2016","zone_id":"2016"}},{"type":"Feature","geometry":{"type":"Point","coordinates":[9.450130000000003,40.78481]},"properties":{"stop_id":"2017","stop_name":"Sos Coddos Dir. Mamusi","operator":"ASPO","stop_code":"2017","zone_id":"2017"}},{"type":"Feature","geometry":{"type":"Point","coordinates":[9.450280000000003,40.78489999999999]},"properties":{"stop_id":"2018","stop_name":"Sos Coddos dir. Olbia","operator":"ASPO","stop_code":"2018","zone_id":"2018"}},{"type":"Feature","geometry":{"type":"Point","coordinates":[9.448220000000001,40.80204]},"properties":{"stop_id":"2019","stop_name":"Via Olivà Dir. Mamusi","operator":"ASPO","stop_code":"2019","zone_id":"2019"}},{"type":"Feature","geometry":{"type":"Point","coordinates":[9.507910000000006,40.930369999999996]},"properties":{"stop_id":"202","stop_name":"Via Dei Lidi fr.69","operator":"ASPO","stop_code":"202","zone_id":"202"}},{"type":"Feature","geometry":{"type":"Point","coordinates":[9.448160000000003,40.80194]},"properties":{"stop_id":"2020","stop_name":"Via Olivà dir. Olbia","operator":"ASPO","stop_code":"2020","zone_id":"2020"}},{"type":"Feature","geometry":{"type":"Point","coordinates":[9.455220000000004,40.94455]},"properties":{"stop_id":"2021","stop_name":"Via San Vittore fronte via Faggio","operator":"ASPO","stop_code":"2021","zone_id":"2021"}},{"type":"Feature","geometry":{"type":"Point","coordinates":[9.456560000000003,40.94100999999999]},"properties":{"stop_id":"2022","stop_name":"Olbia, Via San Vittore","operator":"ASPO","stop_code":"2022","zone_id":"2022"}},{"type":"Feature","geometry":{"type":"Point","coordinates":[9.444420000000003,40.930240000000005]},"properties":{"stop_id":"2023","stop_name":"Santa Mariedda SP 38bis Civico 50","operator":"ASPO","stop_code":"2023","zone_id":"2023"}},{"type":"Feature","geometry":{"type":"Point","coordinates":[9.435180000000003,40.93184000000001]},"properties":{"stop_id":"2024","stop_name":"S. Mariedda S.P. 38 bis Civ 62","operator":"ASPO","stop_code":"2024","zone_id":"2024"}},{"type":"Feature","geometry":{"type":"Point","coordinates":[9.422670000000002,40.93545]},"properties":{"stop_id":"2025","stop_name":"S.P. 38bis Bivio Campo di Pino","operator":"ASPO","stop_code":"2025","zone_id":"2025"}},{"type":"Feature","geometry":{"type":"Point","coordinates":[9.412830000000001,40.93205]},"properties":{"stop_id":"2026","stop_name":"Via della Cantoniera Putzolu","operator":"ASPO","stop_code":"2026","zone_id":"2026"}},{"type":"Feature","geometry":{"type":"Point","coordinates":[9.416700000000002,40.93232]},"properties":{"stop_id":"2027","stop_name":"Via della Cantoniera Putzolu","operator":"ASPO","stop_code":"2027","zone_id":"2027"}},{"type":"Feature","geometry":{"type":"Point","coordinates":[9.422370000000003,40.93533]},"properties":{"stop_id":"2028","stop_name":"Via della Cantoniera int.38 bis","operator":"ASPO","stop_code":"2028","zone_id":"2028"}},{"type":"Feature","geometry":{"type":"Point","coordinates":[9.435480000000004,40.93163999999999]},"properties":{"stop_id":"2029","stop_name":"SP38 bis Inters.  Via Del Nuraghe","operator":"ASPO","stop_code":"2029","zone_id":"2029"}},{"type":"Feature","geometry":{"type":"Point","coordinates":[9.493915000000005,40.92254600000002]},"properties":{"stop_id":"2030","stop_name":"Stazione Terranova","operator":"ASPO","stop_code":"2030","zone_id":"2030"}},{"type":"Feature","geometry":{"type":"Point","coordinates":[9.495040000000003,40.91422000000001]},"properties":{"stop_id":"2031","stop_name":"Olbia, Via Viterbo - Fronte Campi","operator":"ASPO","stop_code":"2031","zone_id":"2031"}},{"type":"Feature","geometry":{"type":"Point","coordinates":[9.475610000000003,40.95810000000001]},"properties":{"stop_id":"2034","stop_name":"Via San Vittore Lato Via Plebi","operator":"ASPO","stop_code":"2034","zone_id":"2034"}},{"type":"Feature","geometry":{"type":"Point","coordinates":[9.528430000000007,40.93546]},"properties":{"stop_id":"204","stop_name":"V.le Italia ZI","operator":"ASPO","stop_code":"204","zone_id":"204"}},{"type":"Feature","geometry":{"type":"Point","coordinates":[9.539830000000007,40.9328]},"properties":{"stop_id":"205","stop_name":"Cala Saccaia","operator":"ASPO","stop_code":"205","zone_id":"205"}},{"type":"Feature","geometry":{"type":"Point","coordinates":[9.491773498416588,40.92952389230339]},"properties":{"stop_id":"2059","stop_name":"V.Forteleoni fr7","operator":"ASPO","stop_code":"2059","zone_id":"090047"}},{"type":"Feature","geometry":{"type":"Point","coordinates":[9.543060000000004,40.93369]},"properties":{"stop_id":"206","stop_name":"Pozzo Sacro","operator":"ASPO","stop_code":"206","zone_id":"206"}},{"type":"Feature","geometry":{"type":"Point","coordinates":[9.545364057047342,40.934945546775225]},"properties":{"stop_id":"207","stop_name":"SP82 Pozzo sacro","operator":"ASPO","stop_code":"207","zone_id":"207-1"}},{"type":"Feature","geometry":{"type":"Point","coordinates":[9.552830000000007,40.93728]},"properties":{"stop_id":"208","stop_name":"SP82 Olbia G.Aranci","operator":"ASPO","stop_code":"208","zone_id":"208"}},{"type":"Feature","geometry":{"type":"Point","coordinates":[9.495161120346678,40.91450677425739]},"properties":{"stop_id":"2081","stop_name":"Via Viterbo, 9","operator":"ASPO","stop_code":"2081","zone_id":"2081"}},{"type":"Feature","geometry":{"type":"Point","coordinates":[9.494440000000004,40.91578]},"properties":{"stop_id":"2082","stop_name":"Olbia, Via Imperia, 1","operator":"ASPO","stop_code":"2082","zone_id":"2082"}},{"type":"Feature","geometry":{"type":"Point","coordinates":[9.500950030474828,40.90425985437937]},"properties":{"stop_id":"2083","stop_name":"Via Loiri, Istituto I.P.A.A.","operator":"ASPO","stop_code":"2083","zone_id":"2083"}},{"type":"Feature","geometry":{"type":"Point","coordinates":[9.47518791400778,40.9580973205644]},"properties":{"stop_id":"2084","stop_name":"S.Vitt. fr Plebi","operator":"ASPO","stop_code":"2084","zone_id":"2084"}},{"type":"Feature","geometry":{"type":"Point","coordinates":[9.547950608504568,40.901678166849656]},"properties":{"stop_id":"2085","stop_name":"Mater","operator":"ASPO","stop_code":"2085","zone_id":"2085"}},{"type":"Feature","geometry":{"type":"Point","coordinates":[9.409380000000002,40.93028999999999]},"properties":{"stop_id":"2086","stop_name":"Via della Cantoniera Putzolu","operator":"ASPO","stop_code":"2086","zone_id":"2086"}},{"type":"Feature","geometry":{"type":"Point","coordinates":[9.512300000000005,40.911199999999994]},"properties":{"stop_id":"2087","stop_name":"Via Mestre 27, angolo Via Perugia","operator":"ASPO","stop_code":"2087","zone_id":"2087"}},{"type":"Feature","geometry":{"type":"Point","coordinates":[9.494856384004716,40.95506870064595]},"properties":{"stop_id":"2088","stop_name":"Nicosia","operator":"ASPO","stop_code":"2088","zone_id":"2088"}},{"type":"Feature","geometry":{"type":"Point","coordinates":[9.491220000000004,40.97776999999999]},"properties":{"stop_id":"2089","stop_name":"sp 125 lato ristorante","operator":"ASPO","stop_code":"2089","zone_id":"2089"}},{"type":"Feature","geometry":{"type":"Point","coordinates":[9.491480000000003,40.97768]},"properties":{"stop_id":"2090","stop_name":"Strada Statale Orientale Sarda","operator":"ASPO","stop_code":"2090","zone_id":"2090"}},{"type":"Feature","geometry":{"type":"Point","coordinates":[9.516020000000005,40.90907999999999]},"properties":{"stop_id":"2091","stop_name":"Strada Statale Orientale Sarda 14","operator":"ASPO","stop_code":"2091","zone_id":"2091"}},{"type":"Feature","geometry":{"type":"Point","coordinates":[9.499880189542457,40.984488808242]},"properties":{"stop_id":"2092","stop_name":"OlbiaVia Picciaredda","operator":"ASPO","stop_code":"2092","zone_id":"2092"}},{"type":"Feature","geometry":{"type":"Point","coordinates":[9.499960000000005,40.98451]},"properties":{"stop_id":"2093","stop_name":"Olbia, fronte Via Picciaredda","operator":"ASPO","stop_code":"2093","zone_id":"2093"}},{"type":"Feature","geometry":{"type":"Point","coordinates":[9.517740000000007,40.90868]},"properties":{"stop_id":"2094","stop_name":"SS 125, civ. 20","operator":"ASPO","stop_code":"2094","zone_id":"2094"}},{"type":"Feature","geometry":{"type":"Point","coordinates":[9.483180000000006,40.92260000000001]},"properties":{"stop_id":"2095","stop_name":"Via Monte Rosa 5","operator":"ASPO","stop_code":"2095","zone_id":"2095"}},{"type":"Feature","geometry":{"type":"Point","coordinates":[9.491230283332841,40.95079476968851]},"properties":{"stop_id":"2096","stop_name":"2096 - Via Mosca","operator":"ASPO","stop_code":"2096","zone_id":"2096"}},{"type":"Feature","geometry":{"type":"Point","coordinates":[9.49168088387151,40.92984858610315]},"properties":{"stop_id":"2099","stop_name":"Forteleoni 17","operator":"ASPO","stop_code":"2099","zone_id":"090047"}},{"type":"Feature","geometry":{"type":"Point","coordinates":[9.566230000000006,40.943949999999994]},"properties":{"stop_id":"210","stop_name":"Spiaggia Lo Squalo","operator":"ASPO","stop_code":"210","zone_id":"210"}},{"type":"Feature","geometry":{"type":"Point","coordinates":[9.56947000000001,40.94780000000001]},"properties":{"stop_id":"211","stop_name":"Spiaggia Pellicano","operator":"ASPO","stop_code":"211","zone_id":"211"}},{"type":"Feature","geometry":{"type":"Point","coordinates":[9.571660000000008,40.951619999999984]},"properties":{"stop_id":"212","stop_name":"Spiaggia Mare Rocce","operator":"ASPO","stop_code":"212","zone_id":"212"}},{"type":"Feature","geometry":{"type":"Point","coordinates":[9.505130000000003,40.92301]},"properties":{"stop_id":"224","stop_name":"Molo Brin","operator":"ASPO","stop_code":"224","zone_id":"224"}},{"type":"Feature","geometry":{"type":"Point","coordinates":[9.509730000000005,40.924200000000006]},"properties":{"stop_id":"225","stop_name":"Capitaneria di Porto","operator":"ASPO","stop_code":"225","zone_id":"225"}},{"type":"Feature","geometry":{"type":"Point","coordinates":[9.511410000000005,40.93083000000001]},"properties":{"stop_id":"231","stop_name":"V. Indonesia fr Mc","operator":"ASPO","stop_code":"231","zone_id":"231"}},{"type":"Feature","geometry":{"type":"Point","coordinates":[9.513840000000004,40.93149]},"properties":{"stop_id":"232","stop_name":"Fronte ASPO","operator":"ASPO","stop_code":"232","zone_id":"232"}},{"type":"Feature","geometry":{"type":"Point","coordinates":[9.520570000000005,40.93361]},"properties":{"stop_id":"233","stop_name":"V. Indonesia Fronte CFadda","operator":"ASPO","stop_code":"233","zone_id":"233"}},{"type":"Feature","geometry":{"type":"Point","coordinates":[9.52137,40.93639999999998]},"properties":{"stop_id":"234","stop_name":"V.Seychelles","operator":"ASPO","stop_code":"234","zone_id":"234"}},{"type":"Feature","geometry":{"type":"Point","coordinates":[9.515780000000005,40.936240000000005]},"properties":{"stop_id":"235","stop_name":"Delta Center","operator":"ASPO","stop_code":"235","zone_id":"235"}},{"type":"Feature","geometry":{"type":"Point","coordinates":[9.514990000000004,40.93854999999999]},"properties":{"stop_id":"236","stop_name":"Via Capo Verde 2a Ferm Direz Geov.","operator":"ASPO","stop_code":"236","zone_id":"236"}},{"type":"Feature","geometry":{"type":"Point","coordinates":[9.521550000000005,40.94084999999999]},"properties":{"stop_id":"237","stop_name":"Via Corea 1a ferm. direz Geov.","operator":"ASPO","stop_code":"237","zone_id":"237"}},{"type":"Feature","geometry":{"type":"Point","coordinates":[9.527150000000004,40.94126]},"properties":{"stop_id":"238","stop_name":"Via Sierra Leone","operator":"ASPO","stop_code":"238","zone_id":"238"}},{"type":"Feature","geometry":{"type":"Point","coordinates":[9.505210000000005,40.929610000000004]},"properties":{"stop_id":"251","stop_name":"Via Dei Lidi 5","operator":"ASPO","stop_code":"251","zone_id":"251"}},{"type":"Feature","geometry":{"type":"Point","coordinates":[9.507780000000004,40.930389999999996]},"properties":{"stop_id":"252","stop_name":"Via Dei Lidi 67","operator":"ASPO","stop_code":"252","zone_id":"252"}},{"type":"Feature","geometry":{"type":"Point","coordinates":[9.517750000000001,40.934949999999965]},"properties":{"stop_id":"253","stop_name":"Blumarine","operator":"ASPO","stop_code":"253","zone_id":"253"}},{"type":"Feature","geometry":{"type":"Point","coordinates":[9.527870000000007,40.93554]},"properties":{"stop_id":"254","stop_name":"V.le Italia Zona Ind.le","operator":"ASPO","stop_code":"254","zone_id":"254"}},{"type":"Feature","geometry":{"type":"Point","coordinates":[9.539820000000008,40.93286000000002]},"properties":{"stop_id":"255","stop_name":"Cala Saccaia","operator":"ASPO","stop_code":"255","zone_id":"255"}},{"type":"Feature","geometry":{"type":"Point","coordinates":[9.542940000000005,40.93369]},"properties":{"stop_id":"256","stop_name":"Pozzo Sacro","operator":"ASPO","stop_code":"256","zone_id":"256"}},{"type":"Feature","geometry":{"type":"Point","coordinates":[9.543810000000008,40.934929999999994]},"properties":{"stop_id":"257","stop_name":"SP82 Pozzo Sacro","operator":"ASPO","stop_code":"257","zone_id":"257"}},{"type":"Feature","geometry":{"type":"Point","coordinates":[9.552340000000008,40.93732999999999]},"properties":{"stop_id":"258","stop_name":"SP82 Olbia G. Aranci","operator":"ASPO","stop_code":"258","zone_id":"258"}},{"type":"Feature","geometry":{"type":"Point","coordinates":[9.566020000000007,40.94384]},"properties":{"stop_id":"260","stop_name":"Lo squalo","operator":"ASPO","stop_code":"260","zone_id":"260"}},{"type":"Feature","geometry":{"type":"Point","coordinates":[9.569400000000007,40.947829999999996]},"properties":{"stop_id":"261","stop_name":"Pellicano","operator":"ASPO","stop_code":"261","zone_id":"261"}},{"type":"Feature","geometry":{"type":"Point","coordinates":[9.57157000000001,40.95164]},"properties":{"stop_id":"262","stop_name":"Mare Rocce","operator":"ASPO","stop_code":"262","zone_id":"262"}},{"type":"Feature","geometry":{"type":"Point","coordinates":[9.505010000000004,40.922959999999996]},"properties":{"stop_id":"274","stop_name":"Comune di Olbia","operator":"ASPO","stop_code":"274","zone_id":"274"}},{"type":"Feature","geometry":{"type":"Point","coordinates":[9.510310000000006,40.924789999999994]},"properties":{"stop_id":"275","stop_name":"V.le I.Bianca fronte capitaneria","operator":"ASPO","stop_code":"275","zone_id":"275"}},{"type":"Feature","geometry":{"type":"Point","coordinates":[9.511400000000005,40.930899999999994]},"properties":{"stop_id":"281","stop_name":"V. Indonesia","operator":"ASPO","stop_code":"281","zone_id":"281"}},{"type":"Feature","geometry":{"type":"Point","coordinates":[9.51359,40.931480000000015]},"properties":{"stop_id":"282","stop_name":"Deposito ASPO","operator":"ASPO","stop_code":"282","zone_id":"282"}},{"type":"Feature","geometry":{"type":"Point","coordinates":[9.520560000000005,40.933640000000004]},"properties":{"stop_id":"283","stop_name":"V. Indonesia Fronte Trony","operator":"ASPO","stop_code":"283","zone_id":"283"}},{"type":"Feature","geometry":{"type":"Point","coordinates":[9.521340000000007,40.936609999999995]},"properties":{"stop_id":"284","stop_name":"V.Seychelles","operator":"ASPO","stop_code":"284","zone_id":"284"}},{"type":"Feature","geometry":{"type":"Point","coordinates":[9.515755000000002,40.936098]},"properties":{"stop_id":"285","stop_name":"Capo Verde dirCentro","operator":"ASPO","stop_code":"285","zone_id":"285"}},{"type":"Feature","geometry":{"type":"Point","coordinates":[9.514950000000006,40.93855]},"properties":{"stop_id":"286","stop_name":"V.Capo Verde 1a ferm. Direz Centro","operator":"ASPO","stop_code":"286","zone_id":"286"}},{"type":"Feature","geometry":{"type":"Point","coordinates":[9.521470000000006,40.940859999999994]},"properties":{"stop_id":"287","stop_name":"Via Corea 2a fermata","operator":"ASPO","stop_code":"287","zone_id":"287"}},{"type":"Feature","geometry":{"type":"Point","coordinates":[9.527130000000003,40.94127]},"properties":{"stop_id":"288","stop_name":"Via Sierra Leone 1","operator":"ASPO","stop_code":"288","zone_id":"288"}},{"type":"Feature","geometry":{"type":"Point","coordinates":[9.57513200000001,40.95461599999997]},"properties":{"stop_id":"291","stop_name":"Bados","operator":"ASPO","stop_code":"291","zone_id":"291"}},{"type":"Feature","geometry":{"type":"Point","coordinates":[9.52012,40.923710000000014]},"properties":{"stop_id":"292","stop_name":"Porto","operator":"ASPO","stop_code":"292","zone_id":"292"}},{"type":"Feature","geometry":{"type":"Point","coordinates":[9.526870000000008,40.94624999999997]},"properties":{"stop_id":"293","stop_name":"Geovillage","operator":"ASPO","stop_code":"293","zone_id":"293"}},{"type":"Feature","geometry":{"type":"Point","coordinates":[9.500400000000006,40.93086]},"properties":{"stop_id":"301","stop_name":"A.Moro Ospedale","operator":"ASPO","stop_code":"301","zone_id":"301"}},{"type":"Feature","geometry":{"type":"Point","coordinates":[9.499360000000003,40.93222]},"properties":{"stop_id":"302","stop_name":"V.le A.Moro 42","operator":"ASPO","stop_code":"302","zone_id":"302"}},{"type":"Feature","geometry":{"type":"Point","coordinates":[9.498840000000005,40.934099999999994]},"properties":{"stop_id":"303","stop_name":"V.le A.Moro 78 poste","operator":"ASPO","stop_code":"303","zone_id":"303"}},{"type":"Feature","geometry":{"type":"Point","coordinates":[9.498210000000002,40.9366]},"properties":{"stop_id":"304","stop_name":"V.le A.Moro fr.bartolo","operator":"ASPO","stop_code":"304","zone_id":"304"}},{"type":"Feature","geometry":{"type":"Point","coordinates":[9.498000000000003,40.937819999999995]},"properties":{"stop_id":"305","stop_name":"V.le A.Moro ex enel","operator":"ASPO","stop_code":"305","zone_id":"305"}},{"type":"Feature","geometry":{"type":"Point","coordinates":[9.498080000000003,40.939240000000005]},"properties":{"stop_id":"306","stop_name":"A.Moro 206 tropical","operator":"ASPO","stop_code":"306","zone_id":"306"}},{"type":"Feature","geometry":{"type":"Point","coordinates":[9.498490000000006,40.94138999999999]},"properties":{"stop_id":"307","stop_name":"V.le A.Moro 252","operator":"ASPO","stop_code":"307","zone_id":"307"}},{"type":"Feature","geometry":{"type":"Point","coordinates":[9.498450000000005,40.942920000000015]},"properties":{"stop_id":"308","stop_name":"A.Moro Romagnolo","operator":"ASPO","stop_code":"308","zone_id":"308"}},{"type":"Feature","geometry":{"type":"Point","coordinates":[9.498190000000005,40.945220000000006]},"properties":{"stop_id":"309","stop_name":"V.le A.Moro ENI","operator":"ASPO","stop_code":"309","zone_id":"309"}},{"type":"Feature","geometry":{"type":"Point","coordinates":[9.498040000000005,40.946850000000005]},"properties":{"stop_id":"310","stop_name":"A.Moro Case Popolari","operator":"ASPO","stop_code":"310","zone_id":"310"}},{"type":"Feature","geometry":{"type":"Point","coordinates":[9.498280000000005,40.94899]},"properties":{"stop_id":"311","stop_name":"V.le A.Moro fr.417","operator":"ASPO","stop_code":"311","zone_id":"311"}},{"type":"Feature","geometry":{"type":"Point","coordinates":[9.498340000000004,40.95194]},"properties":{"stop_id":"312","stop_name":"A.Moro fr. V.Bonn","operator":"ASPO","stop_code":"312","zone_id":"312"}},{"type":"Feature","geometry":{"type":"Point","coordinates":[9.496730000000003,40.95427000000001]},"properties":{"stop_id":"313","stop_name":"V.le A.Moro V.Cairo","operator":"ASPO","stop_code":"313","zone_id":"313"}},{"type":"Feature","geometry":{"type":"Point","coordinates":[9.493590000000003,40.95987]},"properties":{"stop_id":"314","stop_name":"V.le A.Moro fr. 511","operator":"ASPO","stop_code":"314","zone_id":"314"}},{"type":"Feature","geometry":{"type":"Point","coordinates":[9.491460000000004,40.96096]},"properties":{"stop_id":"315","stop_name":"V.le Basa Terranova","operator":"ASPO","stop_code":"315","zone_id":"315"}},{"type":"Feature","geometry":{"type":"Point","coordinates":[9.488860000000006,40.96031]},"properties":{"stop_id":"316","stop_name":"V.le Basa Eurospin","operator":"ASPO","stop_code":"316","zone_id":"316"}},{"type":"Feature","geometry":{"type":"Point","coordinates":[9.484630000000005,40.959070000000004]},"properties":{"stop_id":"317","stop_name":"V.le Basa Piscina","operator":"ASPO","stop_code":"317","zone_id":"317"}},{"type":"Feature","geometry":{"type":"Point","coordinates":[9.499120000000003,40.93142999999999]},"properties":{"stop_id":"330","stop_name":"V.Leonardo Da Vinci","operator":"ASPO","stop_code":"330","zone_id":"330"}},{"type":"Feature","geometry":{"type":"Point","coordinates":[9.500240000000003,40.93094]},"properties":{"stop_id":"351","stop_name":"A.Moro fr.Ospedale","operator":"ASPO","stop_code":"351","zone_id":"351"}},{"type":"Feature","geometry":{"type":"Point","coordinates":[9.499310000000005,40.93226]},"properties":{"stop_id":"352","stop_name":"V.le A.Moro 87","operator":"ASPO","stop_code":"352","zone_id":"352"}},{"type":"Feature","geometry":{"type":"Point","coordinates":[9.498690000000005,40.934499999999986]},"properties":{"stop_id":"353","stop_name":"V.le A.Moro 137","operator":"ASPO","stop_code":"353","zone_id":"353"}},{"type":"Feature","geometry":{"type":"Point","coordinates":[9.498200000000006,40.93633]},"properties":{"stop_id":"354","stop_name":"A.Moro 181 bartolo","operator":"ASPO","stop_code":"354","zone_id":"354"}},{"type":"Feature","geometry":{"type":"Point","coordinates":[9.497930000000006,40.937799999999996]},"properties":{"stop_id":"355","stop_name":"V.le A.Moro 227","operator":"ASPO","stop_code":"355","zone_id":"355"}},{"type":"Feature","geometry":{"type":"Point","coordinates":[9.498030000000005,40.93924]},"properties":{"stop_id":"356","stop_name":"V.le A.Moro 245","operator":"ASPO","stop_code":"356","zone_id":"356"}},{"type":"Feature","geometry":{"type":"Point","coordinates":[9.498430000000006,40.94137000000001]},"properties":{"stop_id":"357","stop_name":"V.le A.Moro fr.252","operator":"ASPO","stop_code":"357","zone_id":"357"}},{"type":"Feature","geometry":{"type":"Point","coordinates":[9.498380000000003,40.94299000000001]},"properties":{"stop_id":"358","stop_name":"A.Moro Romagnolo","operator":"ASPO","stop_code":"358","zone_id":"358"}},{"type":"Feature","geometry":{"type":"Point","coordinates":[9.498190000000005,40.94474]},"properties":{"stop_id":"359","stop_name":"V.le A.Moro fr.ENI","operator":"ASPO","stop_code":"359","zone_id":"359"}},{"type":"Feature","geometry":{"type":"Point","coordinates":[9.497920000000004,40.94705999999999]},"properties":{"stop_id":"360","stop_name":"A.Moro fr.popolari","operator":"ASPO","stop_code":"360","zone_id":"360"}},{"type":"Feature","geometry":{"type":"Point","coordinates":[9.498210000000002,40.948919999999994]},"properties":{"stop_id":"361","stop_name":"V.le A.Moro 409","operator":"ASPO","stop_code":"361","zone_id":"361"}},{"type":"Feature","geometry":{"type":"Point","coordinates":[9.498280000000003,40.95157]},"properties":{"stop_id":"362","stop_name":"A.Moro Minda Noa","operator":"ASPO","stop_code":"362","zone_id":"362"}},{"type":"Feature","geometry":{"type":"Point","coordinates":[9.496540000000005,40.95441999999999]},"properties":{"stop_id":"363","stop_name":"A.Moro fr. V.Cairo","operator":"ASPO","stop_code":"363","zone_id":"363"}},{"type":"Feature","geometry":{"type":"Point","coordinates":[9.493630000000003,40.95947999999998]},"properties":{"stop_id":"364","stop_name":"V.le A.Moro 511","operator":"ASPO","stop_code":"364","zone_id":"364"}},{"type":"Feature","geometry":{"type":"Point","coordinates":[9.488900000000005,40.960239999999985]},"properties":{"stop_id":"366","stop_name":"V.le Basa fr.Eurospin","operator":"ASPO","stop_code":"366","zone_id":"366"}},{"type":"Feature","geometry":{"type":"Point","coordinates":[9.495200000000006,40.949830000000006]},"properties":{"stop_id":"377","stop_name":"Via Londra","operator":"ASPO","stop_code":"377","zone_id":"377"}},{"type":"Feature","geometry":{"type":"Point","coordinates":[9.491640000000011,40.960919999999994]},"properties":{"stop_id":"391","stop_name":"Basa","operator":"ASPO","stop_code":"391","zone_id":"391"}},{"type":"Feature","geometry":{"type":"Point","coordinates":[9.490810000000003,40.97165999999999]},"properties":{"stop_id":"401","stop_name":"SS125 Li Puntitti","operator":"ASPO","stop_code":"401","zone_id":"401"}},{"type":"Feature","geometry":{"type":"Point","coordinates":[9.492580000000006,40.97914]},"properties":{"stop_id":"402","stop_name":"SP73","operator":"ASPO","stop_code":"402","zone_id":"402"}},{"type":"Feature","geometry":{"type":"Point","coordinates":[9.497800000000003,40.98149]},"properties":{"stop_id":"403","stop_name":"SP73 Riv. Legnami","operator":"ASPO","stop_code":"403","zone_id":"403"}},{"type":"Feature","geometry":{"type":"Point","coordinates":[9.500270000000006,40.98707000000001]},"properties":{"stop_id":"404","stop_name":"SP73 Vivaio","operator":"ASPO","stop_code":"404","zone_id":"404"}},{"type":"Feature","geometry":{"type":"Point","coordinates":[9.502010000000004,40.99122]},"properties":{"stop_id":"405","stop_name":"V.le Rudalza","operator":"ASPO","stop_code":"405","zone_id":"405"}},{"type":"Feature","geometry":{"type":"Point","coordinates":[9.515260000000005,40.99505]},"properties":{"stop_id":"406","stop_name":"Rudalza Pazzolu","operator":"ASPO","stop_code":"406","zone_id":"406"}},{"type":"Feature","geometry":{"type":"Point","coordinates":[9.521770000000005,40.99683999999999]},"properties":{"stop_id":"407","stop_name":"Rudalza fr.rist.","operator":"ASPO","stop_code":"407","zone_id":"407"}},{"type":"Feature","geometry":{"type":"Point","coordinates":[9.529160000000006,40.99898000000001]},"properties":{"stop_id":"408","stop_name":"Rudalza","operator":"ASPO","stop_code":"408","zone_id":"408"}},{"type":"Feature","geometry":{"type":"Point","coordinates":[9.532770000000005,41.000159999999994]},"properties":{"stop_id":"409","stop_name":"Monte Ladu","operator":"ASPO","stop_code":"409","zone_id":"409"}},{"type":"Feature","geometry":{"type":"Point","coordinates":[9.531510000000008,41.00676999999999]},"properties":{"stop_id":"410","stop_name":"Monte Ladu ristorante","operator":"ASPO","stop_code":"410","zone_id":"410"}},{"type":"Feature","geometry":{"type":"Point","coordinates":[9.532160000000005,41.01059999999999]},"properties":{"stop_id":"411","stop_name":"Monte Ladu I.Piumica","operator":"ASPO","stop_code":"411","zone_id":"411"}},{"type":"Feature","geometry":{"type":"Point","coordinates":[9.535550000000008,41.01287]},"properties":{"stop_id":"412","stop_name":"Monte Ladu fr.St.Bide","operator":"ASPO","stop_code":"412","zone_id":"412"}},{"type":"Feature","geometry":{"type":"Point","coordinates":[9.539280000000005,41.01684]},"properties":{"stop_id":"413","stop_name":"Monte Ladu I Valentini","operator":"ASPO","stop_code":"413","zone_id":"413"}},{"type":"Feature","geometry":{"type":"Point","coordinates":[9.541300000000007,41.018809999999995]},"properties":{"stop_id":"414","stop_name":"Monte Ladu Maiore","operator":"ASPO","stop_code":"414","zone_id":"414"}},{"type":"Feature","geometry":{"type":"Point","coordinates":[9.543510000000007,41.024159999999995]},"properties":{"stop_id":"415","stop_name":"Porto Rotondo CC","operator":"ASPO","stop_code":"415","zone_id":"415"}},{"type":"Feature","geometry":{"type":"Point","coordinates":[9.546690000000005,41.02588]},"properties":{"stop_id":"416","stop_name":"P.Rotondo P.zza Krizia","operator":"ASPO","stop_code":"416","zone_id":"416"}},{"type":"Feature","geometry":{"type":"Point","coordinates":[9.491030000000006,40.97124000000001]},"properties":{"stop_id":"451","stop_name":"SS125 ex SAFA","operator":"ASPO","stop_code":"451","zone_id":"451"}},{"type":"Feature","geometry":{"type":"Point","coordinates":[9.492570000000004,40.97901999999999]},"properties":{"stop_id":"452","stop_name":"SP73 fr. Agriturismo","operator":"ASPO","stop_code":"452","zone_id":"452"}},{"type":"Feature","geometry":{"type":"Point","coordinates":[9.498520000000003,40.981919999999995]},"properties":{"stop_id":"453","stop_name":"SP73 Tecnoverde","operator":"ASPO","stop_code":"453","zone_id":"453"}},{"type":"Feature","geometry":{"type":"Point","coordinates":[9.500360000000004,40.98644]},"properties":{"stop_id":"454","stop_name":"SP73","operator":"ASPO","stop_code":"454","zone_id":"454"}},{"type":"Feature","geometry":{"type":"Point","coordinates":[9.502030000000005,40.99112999999999]},"properties":{"stop_id":"455","stop_name":"Rudalza int.SP73","operator":"ASPO","stop_code":"455","zone_id":"455"}},{"type":"Feature","geometry":{"type":"Point","coordinates":[9.515640000000005,40.99509]},"properties":{"stop_id":"456","stop_name":"Rudalza fr. Pazzolu","operator":"ASPO","stop_code":"456","zone_id":"456"}},{"type":"Feature","geometry":{"type":"Point","coordinates":[9.522060000000005,40.99676999999999]},"properties":{"stop_id":"457","stop_name":"V.le Rudalza rist.","operator":"ASPO","stop_code":"457","zone_id":"457"}},{"type":"Feature","geometry":{"type":"Point","coordinates":[9.529220000000008,40.99891999999999]},"properties":{"stop_id":"458","stop_name":"Rudalza","operator":"ASPO","stop_code":"458","zone_id":"458"}},{"type":"Feature","geometry":{"type":"Point","coordinates":[9.532960000000005,41.00066999999999]},"properties":{"stop_id":"459","stop_name":"Monte Ladu edicola","operator":"ASPO","stop_code":"459","zone_id":"459"}},{"type":"Feature","geometry":{"type":"Point","coordinates":[9.531760000000006,41.0067]},"properties":{"stop_id":"460","stop_name":"Monte Ladu rist.","operator":"ASPO","stop_code":"460","zone_id":"460"}},{"type":"Feature","geometry":{"type":"Point","coordinates":[9.532790000000007,41.01086999999999]},"properties":{"stop_id":"461","stop_name":"V.M.Ladu fr. I.Piumica","operator":"ASPO","stop_code":"461","zone_id":"461"}},{"type":"Feature","geometry":{"type":"Point","coordinates":[9.535770000000005,41.01297]},"properties":{"stop_id":"462","stop_name":"V.Monte Ladu St. Bide","operator":"ASPO","stop_code":"462","zone_id":"462"}},{"type":"Feature","geometry":{"type":"Point","coordinates":[9.539550000000006,41.017039999999994]},"properties":{"stop_id":"463","stop_name":"Monte Ladu Valentini","operator":"ASPO","stop_code":"463","zone_id":"463"}},{"type":"Feature","geometry":{"type":"Point","coordinates":[9.542040000000007,41.01924000000001]},"properties":{"stop_id":"464","stop_name":"V.Monte Ladu","operator":"ASPO","stop_code":"464","zone_id":"464"}},{"type":"Feature","geometry":{"type":"Point","coordinates":[9.544410000000006,41.02436000000001]},"properties":{"stop_id":"465","stop_name":"P.Rotondo Farmacia","operator":"ASPO","stop_code":"465","zone_id":"465"}},{"type":"Feature","geometry":{"type":"Point","coordinates":[9.546960000000006,41.02594]},"properties":{"stop_id":"466","stop_name":"P.Rotondo Tartarughino","operator":"ASPO","stop_code":"466","zone_id":"466"}},{"type":"Feature","geometry":{"type":"Point","coordinates":[9.548691000000007,41.02765299999997]},"properties":{"stop_id":"491","stop_name":"Porto Rotondo","operator":"ASPO","stop_code":"491","zone_id":"491"}},{"type":"Feature","geometry":{"type":"Point","coordinates":[9.500750000000005,40.92956999999999]},"properties":{"stop_id":"501","stop_name":"Via Galvani 12A","operator":"ASPO","stop_code":"501","zone_id":"501"}},{"type":"Feature","geometry":{"type":"Point","coordinates":[9.497230000000005,40.92973999999999]},"properties":{"stop_id":"502","stop_name":"Via Galvani 78","operator":"ASPO","stop_code":"502","zone_id":"502"}},{"type":"Feature","geometry":{"type":"Point","coordinates":[9.490920000000003,40.92887999999999]},"properties":{"stop_id":"504","stop_name":"Via Petta incrocio Piro","operator":"ASPO","stop_code":"504","zone_id":"504"}},{"type":"Feature","geometry":{"type":"Point","coordinates":[9.488125884305889,40.93098138440378]},"properties":{"stop_id":"505","stop_name":"Via Petta 60","operator":"ASPO","stop_code":"505","zone_id":"505"}},{"type":"Feature","geometry":{"type":"Point","coordinates":[9.483655638297956,40.93284680717575]},"properties":{"stop_id":"507","stop_name":"Via Petta 51","operator":"ASPO","stop_code":"507","zone_id":"090047"}},{"type":"Feature","geometry":{"type":"Point","coordinates":[9.496640000000003,40.93104999999998]},"properties":{"stop_id":"511","stop_name":"Via Euclide fr. 12","operator":"ASPO","stop_code":"511","zone_id":"511"}},{"type":"Feature","geometry":{"type":"Point","coordinates":[9.493770000000003,40.933130000000006]},"properties":{"stop_id":"512","stop_name":"Veronese Gramsci","operator":"ASPO","stop_code":"512","zone_id":"512"}},{"type":"Feature","geometry":{"type":"Point","coordinates":[9.492180000000003,40.93532]},"properties":{"stop_id":"513","stop_name":"Veronese V.Pisano","operator":"ASPO","stop_code":"513","zone_id":"513"}},{"type":"Feature","geometry":{"type":"Point","coordinates":[9.492350000000004,40.93722999999999]},"properties":{"stop_id":"514","stop_name":"Via Veronese Vignola","operator":"ASPO","stop_code":"514","zone_id":"514"}},{"type":"Feature","geometry":{"type":"Point","coordinates":[9.490980000000006,40.94099999999999]},"properties":{"stop_id":"515","stop_name":"Via Veronese Lamberti","operator":"ASPO","stop_code":"515","zone_id":"515"}},{"type":"Feature","geometry":{"type":"Point","coordinates":[9.489010000000004,40.94315000000001]},"properties":{"stop_id":"516","stop_name":"Via Veronese Dei Pini","operator":"ASPO","stop_code":"516","zone_id":"516"}},{"type":"Feature","geometry":{"type":"Point","coordinates":[9.487869178927705,40.9448793221263]},"properties":{"stop_id":"517","stop_name":"Veronese fr.Dei Fiori","operator":"ASPO","stop_code":"517","zone_id":"517"}},{"type":"Feature","geometry":{"type":"Point","coordinates":[9.477010000000003,40.96187]},"properties":{"stop_id":"518","stop_name":"Plebi fr.V.Abba Fritta","operator":"ASPO","stop_code":"518","zone_id":"518"}},{"type":"Feature","geometry":{"type":"Point","coordinates":[9.477290000000004,40.96688]},"properties":{"stop_id":"519","stop_name":"Via Plebi Santa Lucia","operator":"ASPO","stop_code":"519","zone_id":"519"}},{"type":"Feature","geometry":{"type":"Point","coordinates":[9.476840000000003,40.97258999999998]},"properties":{"stop_id":"520","stop_name":"V.Plebi S.Lucia","operator":"ASPO","stop_code":"520","zone_id":"520"}},{"type":"Feature","geometry":{"type":"Point","coordinates":[9.468650000000004,40.959929999999986]},"properties":{"stop_id":"521","stop_name":"V.S.Vittore fr.Chidonza","operator":"ASPO","stop_code":"521","zone_id":"521"}},{"type":"Feature","geometry":{"type":"Point","coordinates":[9.462140000000003,40.96399]},"properties":{"stop_id":"522","stop_name":"S.Vittore 2a fermata","operator":"ASPO","stop_code":"522","zone_id":"522"}},{"type":"Feature","geometry":{"type":"Point","coordinates":[9.455129000000001,40.962509999999995]},"properties":{"stop_id":"523","stop_name":"S.Vittore 3a fermata","operator":"ASPO","stop_code":"523","zone_id":"523"}},{"type":"Feature","geometry":{"type":"Point","coordinates":[9.450750000000001,40.95826]},"properties":{"stop_id":"524","stop_name":"S.Vittore 4a fermata","operator":"ASPO","stop_code":"524","zone_id":"524"}},{"type":"Feature","geometry":{"type":"Point","coordinates":[9.448850000000004,40.95304999999999]},"properties":{"stop_id":"525","stop_name":"S.Vittore Chinzana","operator":"ASPO","stop_code":"525","zone_id":"525"}},{"type":"Feature","geometry":{"type":"Point","coordinates":[9.482140000000003,40.952780000000004]},"properties":{"stop_id":"526","stop_name":"S.Vittore fr.Sa Istrana","operator":"ASPO","stop_code":"526","zone_id":"526"}},{"type":"Feature","geometry":{"type":"Point","coordinates":[9.477820000000003,40.96992000000001]},"properties":{"stop_id":"530","stop_name":"Via Plebi Culatolzu","operator":"ASPO","stop_code":"530","zone_id":"530"}},{"type":"Feature","geometry":{"type":"Point","coordinates":[9.500460000000006,40.929500000000004]},"properties":{"stop_id":"551","stop_name":"Via Galvani fr. 14","operator":"ASPO","stop_code":"551","zone_id":"551"}},{"type":"Feature","geometry":{"type":"Point","coordinates":[9.497380000000005,40.929649999999995]},"properties":{"stop_id":"552","stop_name":"Via Galvani fr. 78","operator":"ASPO","stop_code":"552","zone_id":"552"}},{"type":"Feature","geometry":{"type":"Point","coordinates":[9.489910000000004,40.92883]},"properties":{"stop_id":"554","stop_name":"Petta Croce Bianca","operator":"ASPO","stop_code":"554","zone_id":"554"}},{"type":"Feature","geometry":{"type":"Point","coordinates":[9.488120000000004,40.9309]},"properties":{"stop_id":"555","stop_name":"Via Petta fr. 60","operator":"ASPO","stop_code":"555","zone_id":"555"}},{"type":"Feature","geometry":{"type":"Point","coordinates":[9.493750000000004,40.933049999999994]},"properties":{"stop_id":"562","stop_name":"Veronese fr.Gramsci","operator":"ASPO","stop_code":"562","zone_id":"562"}},{"type":"Feature","geometry":{"type":"Point","coordinates":[9.492060000000004,40.93504000000001]},"properties":{"stop_id":"563","stop_name":"Veronese fr. Pisano","operator":"ASPO","stop_code":"563","zone_id":"563"}},{"type":"Feature","geometry":{"type":"Point","coordinates":[9.492300000000006,40.93722000000001]},"properties":{"stop_id":"564","stop_name":"Veronese fr.Vignola","operator":"ASPO","stop_code":"564","zone_id":"564"}},{"type":"Feature","geometry":{"type":"Point","coordinates":[9.491040000000003,40.9408]},"properties":{"stop_id":"565","stop_name":"Veronese fr.Lamberti","operator":"ASPO","stop_code":"565","zone_id":"565"}},{"type":"Feature","geometry":{"type":"Point","coordinates":[9.489214000000004,40.942596]},"properties":{"stop_id":"566","stop_name":"Veronese fr. Dei Pini","operator":"ASPO","stop_code":"566","zone_id":"566"}},{"type":"Feature","geometry":{"type":"Point","coordinates":[9.48776251347087,40.94487076120969]},"properties":{"stop_id":"567","stop_name":"Veronese via dei Fiori","operator":"ASPO","stop_code":"567","zone_id":"567"}},{"type":"Feature","geometry":{"type":"Point","coordinates":[9.476960000000002,40.96189]},"properties":{"stop_id":"568","stop_name":"Plebi Via Abba Fritta","operator":"ASPO","stop_code":"568","zone_id":"568"}},{"type":"Feature","geometry":{"type":"Point","coordinates":[9.477170000000003,40.966609999999996]},"properties":{"stop_id":"569","stop_name":"Plebi fr. Santa Lucia","operator":"ASPO","stop_code":"569","zone_id":"569"}},{"type":"Feature","geometry":{"type":"Point","coordinates":[9.468570000000003,40.95984]},"properties":{"stop_id":"571","stop_name":"San Vittore Chidonza","operator":"ASPO","stop_code":"571","zone_id":"571"}},{"type":"Feature","geometry":{"type":"Point","coordinates":[9.462300000000004,40.963770000000004]},"properties":{"stop_id":"572","stop_name":"Via San Vittore 2a fer.","operator":"ASPO","stop_code":"572","zone_id":"572"}},{"type":"Feature","geometry":{"type":"Point","coordinates":[9.455300000000001,40.96234899999999]},"properties":{"stop_id":"573","stop_name":"Via San Vittore","operator":"ASPO","stop_code":"573","zone_id":"573"}},{"type":"Feature","geometry":{"type":"Point","coordinates":[9.450860000000004,40.95827000000001]},"properties":{"stop_id":"574","stop_name":"Via San Vittore 4a fer.","operator":"ASPO","stop_code":"574","zone_id":"574"}},{"type":"Feature","geometry":{"type":"Point","coordinates":[9.449010000000001,40.953100000000006]},"properties":{"stop_id":"575","stop_name":"V.S.Vittore fr.Chinzana","operator":"ASPO","stop_code":"575","zone_id":"575"}},{"type":"Feature","geometry":{"type":"Point","coordinates":[9.482000000000003,40.95286999999999]},"properties":{"stop_id":"576","stop_name":"San Vittore Sa Istrana","operator":"ASPO","stop_code":"576","zone_id":"576"}},{"type":"Feature","geometry":{"type":"Point","coordinates":[9.477790000000004,40.96986]},"properties":{"stop_id":"580","stop_name":"Via Plebi Culatolzu","operator":"ASPO","stop_code":"580","zone_id":"580"}},{"type":"Feature","geometry":{"type":"Point","coordinates":[9.485970000000002,40.93201999999998]},"properties":{"stop_id":"591","stop_name":"San Nicola","operator":"ASPO","stop_code":"591","zone_id":"591"}},{"type":"Feature","geometry":{"type":"Point","coordinates":[9.449610000000002,40.94818999999999]},"properties":{"stop_id":"592","stop_name":"San Vittore","operator":"ASPO","stop_code":"592","zone_id":"592"}},{"type":"Feature","geometry":{"type":"Point","coordinates":[9.493230000000006,40.92455999999999]},"properties":{"stop_id":"601","stop_name":"Via Brigata Sassari","operator":"ASPO","stop_code":"601","zone_id":"601"}},{"type":"Feature","geometry":{"type":"Point","coordinates":[9.490520000000002,40.92504]},"properties":{"stop_id":"602","stop_name":"Barcellona V.Rossini","operator":"ASPO","stop_code":"602","zone_id":"602"}},{"type":"Feature","geometry":{"type":"Point","coordinates":[9.487740000000006,40.92580000000001]},"properties":{"stop_id":"605","stop_name":"Barcellona Porpora","operator":"ASPO","stop_code":"605","zone_id":"605"}},{"type":"Feature","geometry":{"type":"Point","coordinates":[9.486250000000004,40.92643]},"properties":{"stop_id":"606","stop_name":"Barcellona fr.Nassiria","operator":"ASPO","stop_code":"606","zone_id":"606"}},{"type":"Feature","geometry":{"type":"Point","coordinates":[9.481826308392845,40.92765768793823]},"properties":{"stop_id":"607","stop_name":"Via Barc. fr. 157","operator":"ASPO","stop_code":"607","zone_id":"607"}},{"type":"Feature","geometry":{"type":"Point","coordinates":[9.480020000000003,40.92755999999999]},"properties":{"stop_id":"608","stop_name":"Via De Sanctis","operator":"ASPO","stop_code":"608","zone_id":"608"}},{"type":"Feature","geometry":{"type":"Point","coordinates":[9.480140000000004,40.926159999999996]},"properties":{"stop_id":"609","stop_name":"Via Correggio V.Corelli","operator":"ASPO","stop_code":"609","zone_id":"609"}},{"type":"Feature","geometry":{"type":"Point","coordinates":[9.481010000000003,40.92369]},"properties":{"stop_id":"610","stop_name":"Via Correggio Gregorio","operator":"ASPO","stop_code":"610","zone_id":"610"}},{"type":"Feature","geometry":{"type":"Point","coordinates":[9.481570000000003,40.9217]},"properties":{"stop_id":"611","stop_name":"Via Vesuvio","operator":"ASPO","stop_code":"611","zone_id":"611"}},{"type":"Feature","geometry":{"type":"Point","coordinates":[9.482780000000004,40.92157]},"properties":{"stop_id":"612","stop_name":"Corso Vittorio Veneto fr.ENI","operator":"ASPO","stop_code":"612","zone_id":"612"}},{"type":"Feature","geometry":{"type":"Point","coordinates":[9.485110000000006,40.921910000000004]},"properties":{"stop_id":"613","stop_name":"Corso Vittorio Veneto V.Emilia","operator":"ASPO","stop_code":"613","zone_id":"613"}},{"type":"Feature","geometry":{"type":"Point","coordinates":[9.488300000000004,40.92240000000001]},"properties":{"stop_id":"614","stop_name":"Corso Vittorio Veneto A.Adige","operator":"ASPO","stop_code":"614","zone_id":"614"}},{"type":"Feature","geometry":{"type":"Point","coordinates":[9.492110000000006,40.92296999999999]},"properties":{"stop_id":"615","stop_name":"Corso Vittorio Veneto Campania","operator":"ASPO","stop_code":"615","zone_id":"615"}},{"type":"Feature","geometry":{"type":"Point","coordinates":[9.49371985616269,40.92322955338464]},"properties":{"stop_id":"616","stop_name":"Veneto fr.Toti","operator":"ASPO","stop_code":"616","zone_id":"616"}},{"type":"Feature","geometry":{"type":"Point","coordinates":[9.496170000000003,40.92358000000001]},"properties":{"stop_id":"617","stop_name":"C.so V. Veneto Diaz","operator":"ASPO","stop_code":"617","zone_id":"617"}},{"type":"Feature","geometry":{"type":"Point","coordinates":[9.486000000000004,40.92412]},"properties":{"stop_id":"622","stop_name":"Via Cesti","operator":"ASPO","stop_code":"622","zone_id":"622"}},{"type":"Feature","geometry":{"type":"Point","coordinates":[9.481750000000003,40.920930000000006]},"properties":{"stop_id":"623","stop_name":"Via Tre Venezie LD","operator":"ASPO","stop_code":"623","zone_id":"623"}},{"type":"Feature","geometry":{"type":"Point","coordinates":[9.482520000000003,40.91793999999999]},"properties":{"stop_id":"624","stop_name":"Tre Venezie 2a fer.","operator":"ASPO","stop_code":"624","zone_id":"624"}},{"type":"Feature","geometry":{"type":"Point","coordinates":[9.479490000000004,40.91606000000001]},"properties":{"stop_id":"625","stop_name":"Via Bazzoni ASL","operator":"ASPO","stop_code":"625","zone_id":"625"}},{"type":"Feature","geometry":{"type":"Point","coordinates":[9.477720000000003,40.91488]},"properties":{"stop_id":"626","stop_name":"Via Bazzoni","operator":"ASPO","stop_code":"626","zone_id":"626"}},{"type":"Feature","geometry":{"type":"Point","coordinates":[9.475410000000004,40.91357999999999]},"properties":{"stop_id":"627","stop_name":"via Bazzoni (Chiesa)","operator":"ASPO","stop_code":"627","zone_id":"627"}},{"type":"Feature","geometry":{"type":"Point","coordinates":[9.459870000000004,40.930330000000005]},"properties":{"stop_id":"634","stop_name":"S.Lucia San Vittore","operator":"ASPO","stop_code":"634","zone_id":"634"}},{"type":"Feature","geometry":{"type":"Point","coordinates":[9.456870000000004,40.93018]},"properties":{"stop_id":"635","stop_name":"Santa Lucia V.Pegaso","operator":"ASPO","stop_code":"635","zone_id":"635"}},{"type":"Feature","geometry":{"type":"Point","coordinates":[9.453630000000002,40.93005000000001]},"properties":{"stop_id":"636","stop_name":"V.S.Lucia 3a fermata","operator":"ASPO","stop_code":"636","zone_id":"636"}},{"type":"Feature","geometry":{"type":"Point","coordinates":[9.451790000000004,40.930130000000005]},"properties":{"stop_id":"637","stop_name":"V.S.Lucia fr.V.Lattea","operator":"ASPO","stop_code":"637","zone_id":"637"}},{"type":"Feature","geometry":{"type":"Point","coordinates":[9.449930000000004,40.93006]},"properties":{"stop_id":"638","stop_name":"V.S.Lucia V.Del Grano","operator":"ASPO","stop_code":"638","zone_id":"638"}},{"type":"Feature","geometry":{"type":"Point","coordinates":[9.446760000000003,40.93006]},"properties":{"stop_id":"639","stop_name":"V.Santa Lucia","operator":"ASPO","stop_code":"639","zone_id":"639"}},{"type":"Feature","geometry":{"type":"Point","coordinates":[9.495960000000006,40.92573999999999]},"properties":{"stop_id":"651","stop_name":"V.F.Noce S.Simplicio","operator":"ASPO","stop_code":"651","zone_id":"651"}},{"type":"Feature","geometry":{"type":"Point","coordinates":[9.492970000000003,40.92652999999999]},"properties":{"stop_id":"652","stop_name":"V.Fausto Noce 1a","operator":"ASPO","stop_code":"652","zone_id":"652"}},{"type":"Feature","geometry":{"type":"Point","coordinates":[9.490380000000004,40.92750000000001]},"properties":{"stop_id":"653","stop_name":"V.Leoncavallo 2a","operator":"ASPO","stop_code":"653","zone_id":"653"}},{"type":"Feature","geometry":{"type":"Point","coordinates":[9.489890000000004,40.92526999999999]},"properties":{"stop_id":"654","stop_name":"V.Leoncavallo 1a","operator":"ASPO","stop_code":"654","zone_id":"654"}},{"type":"Feature","geometry":{"type":"Point","coordinates":[9.487720000000003,40.92577000000001]},"properties":{"stop_id":"655","stop_name":"V.Barcellona V.Vivaldi","operator":"ASPO","stop_code":"655","zone_id":"655"}},{"type":"Feature","geometry":{"type":"Point","coordinates":[9.486280000000006,40.926359999999995]},"properties":{"stop_id":"656","stop_name":"Barcellona P.Nassiria","operator":"ASPO","stop_code":"656","zone_id":"656"}},{"type":"Feature","geometry":{"type":"Point","coordinates":[9.482870000000004,40.92747]},"properties":{"stop_id":"657","stop_name":"Barcellona Monteverdi","operator":"ASPO","stop_code":"657","zone_id":"657"}},{"type":"Feature","geometry":{"type":"Point","coordinates":[9.480630000000003,40.927389999999995]},"properties":{"stop_id":"658","stop_name":"Via Masaccio","operator":"ASPO","stop_code":"658","zone_id":"658"}},{"type":"Feature","geometry":{"type":"Point","coordinates":[9.480720000000003,40.926339999999996]},"properties":{"stop_id":"659","stop_name":"Via Masaccio V.Giotto","operator":"ASPO","stop_code":"659","zone_id":"659"}},{"type":"Feature","geometry":{"type":"Point","coordinates":[9.481190000000003,40.92518]},"properties":{"stop_id":"660","stop_name":"Via Masaccio V.Corelli","operator":"ASPO","stop_code":"660","zone_id":"660"}},{"type":"Feature","geometry":{"type":"Point","coordinates":[9.481840000000004,40.92340000000001]},"properties":{"stop_id":"661","stop_name":"Masaccio V.Cimabue","operator":"ASPO","stop_code":"661","zone_id":"661"}},{"type":"Feature","geometry":{"type":"Point","coordinates":[9.482830000000003,40.921620000000004]},"properties":{"stop_id":"662","stop_name":"Corso Vittorio Veneto ENI","operator":"ASPO","stop_code":"662","zone_id":"662"}},{"type":"Feature","geometry":{"type":"Point","coordinates":[9.485040000000001,40.92193]},"properties":{"stop_id":"663","stop_name":"Corso Vittorio Veneto fr.VEmilia","operator":"ASPO","stop_code":"663","zone_id":"663"}},{"type":"Feature","geometry":{"type":"Point","coordinates":[9.488190000000003,40.922419999999995]},"properties":{"stop_id":"664","stop_name":"Corso Vittorio Veneto Cimabue","operator":"ASPO","stop_code":"664","zone_id":"664"}},{"type":"Feature","geometry":{"type":"Point","coordinates":[9.491630000000004,40.922929999999994]},"properties":{"stop_id":"665","stop_name":"Corso Vittorio Veneto Toscana","operator":"ASPO","stop_code":"665","zone_id":"665"}},{"type":"Feature","geometry":{"type":"Point","coordinates":[9.493880000000004,40.923289999999994]},"properties":{"stop_id":"666","stop_name":"Veneto V.Toti","operator":"ASPO","stop_code":"666","zone_id":"666"}},{"type":"Feature","geometry":{"type":"Point","coordinates":[9.495770000000006,40.92355]},"properties":{"stop_id":"667","stop_name":"Corso Vittorio Diaz","operator":"ASPO","stop_code":"667","zone_id":"667"}},{"type":"Feature","geometry":{"type":"Point","coordinates":[9.487280000000004,40.92311]},"properties":{"stop_id":"671","stop_name":"Via Cimabue fr. scuole","operator":"ASPO","stop_code":"671","zone_id":"671"}},{"type":"Feature","geometry":{"type":"Point","coordinates":[9.485500000000004,40.9239]},"properties":{"stop_id":"672","stop_name":"Cimabue G.D'Arezzo","operator":"ASPO","stop_code":"672","zone_id":"672"}},{"type":"Feature","geometry":{"type":"Point","coordinates":[9.482590000000005,40.92034000000002]},"properties":{"stop_id":"673","stop_name":"Via Val D'Aosta","operator":"ASPO","stop_code":"673","zone_id":"673"}},{"type":"Feature","geometry":{"type":"Point","coordinates":[9.482670000000004,40.91794999999999]},"properties":{"stop_id":"674","stop_name":"Via Tre Venezie","operator":"ASPO","stop_code":"674","zone_id":"674"}},{"type":"Feature","geometry":{"type":"Point","coordinates":[9.479540000000004,40.916]},"properties":{"stop_id":"675","stop_name":"Via Bazzoni fr. ASL","operator":"ASPO","stop_code":"675","zone_id":"675"}},{"type":"Feature","geometry":{"type":"Point","coordinates":[9.477840000000004,40.91487]},"properties":{"stop_id":"676","stop_name":"Via Bazzoni","operator":"ASPO","stop_code":"676","zone_id":"676"}},{"type":"Feature","geometry":{"type":"Point","coordinates":[9.475510000000003,40.91351]},"properties":{"stop_id":"677","stop_name":"via Bazzoni fr.Chiesa","operator":"ASPO","stop_code":"677","zone_id":"677"}},{"type":"Feature","geometry":{"type":"Point","coordinates":[9.479830000000003,40.928000000000004]},"properties":{"stop_id":"678","stop_name":"Barcellona De Santis","operator":"ASPO","stop_code":"678","zone_id":"678"}},{"type":"Feature","geometry":{"type":"Point","coordinates":[9.477130000000004,40.92811999999999]},"properties":{"stop_id":"679","stop_name":"Barcellona Cambini","operator":"ASPO","stop_code":"679","zone_id":"679"}},{"type":"Feature","geometry":{"type":"Point","coordinates":[9.474180000000004,40.92869999999999]},"properties":{"stop_id":"680","stop_name":"Barcellona S.Basilio","operator":"ASPO","stop_code":"680","zone_id":"680"}},{"type":"Feature","geometry":{"type":"Point","coordinates":[9.471660000000004,40.92926000000001]},"properties":{"stop_id":"681","stop_name":"Barcellona San Pietro","operator":"ASPO","stop_code":"681","zone_id":"681"}},{"type":"Feature","geometry":{"type":"Point","coordinates":[9.465930000000004,40.92927]},"properties":{"stop_id":"682","stop_name":"Barcellona S.Severino","operator":"ASPO","stop_code":"682","zone_id":"682"}},{"type":"Feature","geometry":{"type":"Point","coordinates":[9.463400000000004,40.929479999999984]},"properties":{"stop_id":"683","stop_name":"Barcellona S.Giovanni","operator":"ASPO","stop_code":"683","zone_id":"683"}},{"type":"Feature","geometry":{"type":"Point","coordinates":[9.459850000000003,40.9302]},"properties":{"stop_id":"684","stop_name":"V.Santa Lucia","operator":"ASPO","stop_code":"684","zone_id":"684"}},{"type":"Feature","geometry":{"type":"Point","coordinates":[9.456870000000002,40.93014999999999]},"properties":{"stop_id":"685","stop_name":"V.S. Lucia fr.V.Pegaso","operator":"ASPO","stop_code":"685","zone_id":"685"}},{"type":"Feature","geometry":{"type":"Point","coordinates":[9.453610000000003,40.93001999999999]},"properties":{"stop_id":"686","stop_name":"V.S. Lucia 3a fermata","operator":"ASPO","stop_code":"686","zone_id":"686"}},{"type":"Feature","geometry":{"type":"Point","coordinates":[9.451790000000004,40.9301]},"properties":{"stop_id":"687","stop_name":"V.S. Lucia V.Lattea","operator":"ASPO","stop_code":"687","zone_id":"687"}},{"type":"Feature","geometry":{"type":"Point","coordinates":[9.449940000000003,40.93003000000001]},"properties":{"stop_id":"688","stop_name":"S. Lucia fr.Del Grano","operator":"ASPO","stop_code":"688","zone_id":"688"}},{"type":"Feature","geometry":{"type":"Point","coordinates":[9.446660000000001,40.92997]},"properties":{"stop_id":"689","stop_name":"S. Lucia fr.S.Mariedda","operator":"ASPO","stop_code":"689","zone_id":"689"}},{"type":"Feature","geometry":{"type":"Point","coordinates":[9.47226000000001,40.911939999999994]},"properties":{"stop_id":"691","stop_name":"Osp.le G. Paolo II","operator":"ASPO","stop_code":"691","zone_id":"691"}},{"type":"Feature","geometry":{"type":"Point","coordinates":[9.444370000000001,40.93014]},"properties":{"stop_id":"692","stop_name":"Santa Mariedda","operator":"ASPO","stop_code":"692","zone_id":"692"}},{"type":"Feature","geometry":{"type":"Point","coordinates":[9.481060000000003,40.92133]},"properties":{"stop_id":"701","stop_name":"Corso Vittorio Veneto 136","operator":"ASPO","stop_code":"701","zone_id":"701"}},{"type":"Feature","geometry":{"type":"Point","coordinates":[9.477110000000003,40.92075]},"properties":{"stop_id":"702","stop_name":"Corso Vittorio Veneto scuola","operator":"ASPO","stop_code":"702","zone_id":"702"}},{"type":"Feature","geometry":{"type":"Point","coordinates":[9.474130000000004,40.920179999999995]},"properties":{"stop_id":"703","stop_name":"Corso Vittorio Veneto Capuana","operator":"ASPO","stop_code":"703","zone_id":"703"}},{"type":"Feature","geometry":{"type":"Point","coordinates":[9.470440000000002,40.92312]},"properties":{"stop_id":"705","stop_name":"Marco Polo civico 39","operator":"ASPO","stop_code":"705","zone_id":"705"}},{"type":"Feature","geometry":{"type":"Point","coordinates":[9.471660000000004,40.920489999999994]},"properties":{"stop_id":"706","stop_name":"Marco Polo civico 17","operator":"ASPO","stop_code":"706","zone_id":"706"}},{"type":"Feature","geometry":{"type":"Point","coordinates":[9.469670000000002,40.91926]},"properties":{"stop_id":"707","stop_name":"Corso Vittorio Veneto J.Cook","operator":"ASPO","stop_code":"707","zone_id":"707"}},{"type":"Feature","geometry":{"type":"Point","coordinates":[9.460910000000004,40.91937]},"properties":{"stop_id":"708","stop_name":"SS127 Nieddu trasporti","operator":"ASPO","stop_code":"708","zone_id":"708"}},{"type":"Feature","geometry":{"type":"Point","coordinates":[9.454490000000002,40.919999999999995]},"properties":{"stop_id":"709","stop_name":"SS127 Via Urano","operator":"ASPO","stop_code":"709","zone_id":"709"}},{"type":"Feature","geometry":{"type":"Point","coordinates":[9.449320000000004,40.9203]},"properties":{"stop_id":"710","stop_name":"SS127 Rio Saligheddu","operator":"ASPO","stop_code":"710","zone_id":"710"}},{"type":"Feature","geometry":{"type":"Point","coordinates":[9.447080000000001,40.92022]},"properties":{"stop_id":"711","stop_name":"SS127 fr. Maltanedda","operator":"ASPO","stop_code":"711","zone_id":"711"}},{"type":"Feature","geometry":{"type":"Point","coordinates":[9.442970000000004,40.92002]},"properties":{"stop_id":"712","stop_name":"SS127 V. Del Nuraghe","operator":"ASPO","stop_code":"712","zone_id":"712"}},{"type":"Feature","geometry":{"type":"Point","coordinates":[9.438610000000002,40.91861]},"properties":{"stop_id":"713","stop_name":"SS127 V. Lu Caprioni","operator":"ASPO","stop_code":"713","zone_id":"713"}},{"type":"Feature","geometry":{"type":"Point","coordinates":[9.437040000000003,40.91767999999999]},"properties":{"stop_id":"714","stop_name":"SS127 fr. Telti","operator":"ASPO","stop_code":"714","zone_id":"714"}},{"type":"Feature","geometry":{"type":"Point","coordinates":[9.432110000000002,40.916019999999996]},"properties":{"stop_id":"715","stop_name":"SS127 km 6.2 Caresi","operator":"ASPO","stop_code":"715","zone_id":"715"}},{"type":"Feature","geometry":{"type":"Point","coordinates":[9.427380000000001,40.91490999999999]},"properties":{"stop_id":"716","stop_name":"SS127 fr. Il Botteghino","operator":"ASPO","stop_code":"716","zone_id":"716"}},{"type":"Feature","geometry":{"type":"Point","coordinates":[9.410270000000002,40.910909999999994]},"properties":{"stop_id":"717","stop_name":"SS127","operator":"ASPO","stop_code":"717","zone_id":"717"}},{"type":"Feature","geometry":{"type":"Point","coordinates":[9.404610000000002,40.91248]},"properties":{"stop_id":"718","stop_name":"Putzolu fr. V.Peditoltu","operator":"ASPO","stop_code":"718","zone_id":"718"}},{"type":"Feature","geometry":{"type":"Point","coordinates":[9.407920000000003,40.91790000000001]},"properties":{"stop_id":"719","stop_name":"Putzolu St.zo Caprolu","operator":"ASPO","stop_code":"719","zone_id":"719"}},{"type":"Feature","geometry":{"type":"Point","coordinates":[9.410110000000001,40.92111]},"properties":{"stop_id":"720","stop_name":"Putzolu Rio Caprolu","operator":"ASPO","stop_code":"720","zone_id":"720"}},{"type":"Feature","geometry":{"type":"Point","coordinates":[9.409820000000002,40.92279]},"properties":{"stop_id":"721","stop_name":"Putzolu fr.Spiegana","operator":"ASPO","stop_code":"721","zone_id":"721"}},{"type":"Feature","geometry":{"type":"Point","coordinates":[9.408540000000002,40.92437]},"properties":{"stop_id":"722","stop_name":"Putzolu Spiegana","operator":"ASPO","stop_code":"722","zone_id":"722"}},{"type":"Feature","geometry":{"type":"Point","coordinates":[9.408060000000003,40.92595]},"properties":{"stop_id":"723","stop_name":"Cantoniera Putzolu","operator":"ASPO","stop_code":"723","zone_id":"723"}},{"type":"Feature","geometry":{"type":"Point","coordinates":[9.404740000000002,40.90989]},"properties":{"stop_id":"730","stop_name":"V.Putzolu SS127","operator":"ASPO","stop_code":"730","zone_id":"730"}},{"type":"Feature","geometry":{"type":"Point","coordinates":[9.433540000000002,40.91635]},"properties":{"stop_id":"731","stop_name":"SS127 fr. V.Scalpitta","operator":"ASPO","stop_code":"731","zone_id":"731"}},{"type":"Feature","geometry":{"type":"Point","coordinates":[9.480300000000003,40.921189999999996]},"properties":{"stop_id":"751","stop_name":"Corso Vittorio Veneto Via Apulia","operator":"ASPO","stop_code":"751","zone_id":"751"}},{"type":"Feature","geometry":{"type":"Point","coordinates":[9.477690000000004,40.92077999999999]},"properties":{"stop_id":"752","stop_name":"Corso Vittorio Veneto fr. scuola","operator":"ASPO","stop_code":"752","zone_id":"752"}},{"type":"Feature","geometry":{"type":"Point","coordinates":[9.474160000000003,40.92014]},"properties":{"stop_id":"753","stop_name":"Corso Vittorio Veneto fr.Capuana","operator":"ASPO","stop_code":"753","zone_id":"753"}},{"type":"Feature","geometry":{"type":"Point","coordinates":[9.471720000000003,40.920449999999995]},"properties":{"stop_id":"755","stop_name":"Marco Polo civico 20","operator":"ASPO","stop_code":"755","zone_id":"755"}},{"type":"Feature","geometry":{"type":"Point","coordinates":[9.470510000000004,40.92309999999999]},"properties":{"stop_id":"756","stop_name":"Marco Polo civico 40","operator":"ASPO","stop_code":"756","zone_id":"756"}},{"type":"Feature","geometry":{"type":"Point","coordinates":[9.469680000000004,40.91922999999999]},"properties":{"stop_id":"757","stop_name":"Corso Vittorio Veneto fr. J.Cook","operator":"ASPO","stop_code":"757","zone_id":"757"}},{"type":"Feature","geometry":{"type":"Point","coordinates":[9.463680000000004,40.91897999999999]},"properties":{"stop_id":"758","stop_name":"SS127","operator":"ASPO","stop_code":"758","zone_id":"758"}},{"type":"Feature","geometry":{"type":"Point","coordinates":[9.455690000000004,40.91983999999999]},"properties":{"stop_id":"759","stop_name":"SS127 V. del Satellite","operator":"ASPO","stop_code":"759","zone_id":"759"}},{"type":"Feature","geometry":{"type":"Point","coordinates":[9.449660000000003,40.92025999999999]},"properties":{"stop_id":"760","stop_name":"SS127 fr. Saligheddu","operator":"ASPO","stop_code":"760","zone_id":"760"}},{"type":"Feature","geometry":{"type":"Point","coordinates":[9.447020000000004,40.92015000000001]},"properties":{"stop_id":"761","stop_name":"SS127 Maltanedda","operator":"ASPO","stop_code":"761","zone_id":"761"}},{"type":"Feature","geometry":{"type":"Point","coordinates":[9.443580000000004,40.91996]},"properties":{"stop_id":"762","stop_name":"SS127 fr. Del Nuraghe","operator":"ASPO","stop_code":"762","zone_id":"762"}},{"type":"Feature","geometry":{"type":"Point","coordinates":[9.438650000000003,40.91857999999999]},"properties":{"stop_id":"763","stop_name":"SS127 Lu Caprioni","operator":"ASPO","stop_code":"763","zone_id":"763"}},{"type":"Feature","geometry":{"type":"Point","coordinates":[9.437190000000001,40.9177]},"properties":{"stop_id":"764","stop_name":"SS127 Monte A Telti","operator":"ASPO","stop_code":"764","zone_id":"764"}},{"type":"Feature","geometry":{"type":"Point","coordinates":[9.432130000000003,40.91599]},"properties":{"stop_id":"765","stop_name":"SS127 km 6.200","operator":"ASPO","stop_code":"765","zone_id":"765"}},{"type":"Feature","geometry":{"type":"Point","coordinates":[9.427360000000002,40.91488]},"properties":{"stop_id":"766","stop_name":"SS127 Il Botteghino","operator":"ASPO","stop_code":"766","zone_id":"766"}},{"type":"Feature","geometry":{"type":"Point","coordinates":[9.410290000000002,40.91088]},"properties":{"stop_id":"767","stop_name":"SS127 S. Elisabetta","operator":"ASPO","stop_code":"767","zone_id":"767"}},{"type":"Feature","geometry":{"type":"Point","coordinates":[9.404550000000002,40.91249]},"properties":{"stop_id":"768","stop_name":"Putzolu Peditoltu","operator":"ASPO","stop_code":"768","zone_id":"768"}},{"type":"Feature","geometry":{"type":"Point","coordinates":[9.407830000000002,40.91817999999999]},"properties":{"stop_id":"769","stop_name":"V.Putzolu fr.Caprolu","operator":"ASPO","stop_code":"769","zone_id":"769"}},{"type":"Feature","geometry":{"type":"Point","coordinates":[9.410020000000001,40.92110000000001]},"properties":{"stop_id":"770","stop_name":"Putzolu Rio Caprolu","operator":"ASPO","stop_code":"770","zone_id":"770"}},{"type":"Feature","geometry":{"type":"Point","coordinates":[9.409750000000003,40.92260999999999]},"properties":{"stop_id":"771","stop_name":"Putzolu Spiegana","operator":"ASPO","stop_code":"771","zone_id":"771"}},{"type":"Feature","geometry":{"type":"Point","coordinates":[9.408350000000002,40.92466999999999]},"properties":{"stop_id":"772","stop_name":"Putzolu Spiegana","operator":"ASPO","stop_code":"772","zone_id":"772"}},{"type":"Feature","geometry":{"type":"Point","coordinates":[9.407990000000002,40.925940000000004]},"properties":{"stop_id":"773","stop_name":"Putzolu Littunedda","operator":"ASPO","stop_code":"773","zone_id":"773"}},{"type":"Feature","geometry":{"type":"Point","coordinates":[9.404600000000002,40.909760000000006]},"properties":{"stop_id":"780","stop_name":"Putzolu","operator":"ASPO","stop_code":"780","zone_id":"780"}},{"type":"Feature","geometry":{"type":"Point","coordinates":[9.433540000000002,40.91631000000001]},"properties":{"stop_id":"781","stop_name":"SS127 Scalpitta","operator":"ASPO","stop_code":"781","zone_id":"781"}},{"type":"Feature","geometry":{"type":"Point","coordinates":[9.409500000000001,40.930609999999994]},"properties":{"stop_id":"791","stop_name":"Caresi","operator":"ASPO","stop_code":"791","zone_id":"791"}},{"type":"Feature","geometry":{"type":"Point","coordinates":[9.493930000000004,40.91589]},"properties":{"stop_id":"801","stop_name":"Via Ungheria Nespoli","operator":"ASPO","stop_code":"801","zone_id":"801"}},{"type":"Feature","geometry":{"type":"Point","coordinates":[9.491180000000004,40.91557999999998]},"properties":{"stop_id":"802","stop_name":"Via Ungheria Nespoli","operator":"ASPO","stop_code":"802","zone_id":"802"}},{"type":"Feature","geometry":{"type":"Point","coordinates":[9.488400000000006,40.91560999999999]},"properties":{"stop_id":"803","stop_name":"Via Germania 370","operator":"ASPO","stop_code":"803","zone_id":"803"}},{"type":"Feature","geometry":{"type":"Point","coordinates":[9.488180000000003,40.914470000000016]},"properties":{"stop_id":"804","stop_name":"Via Gran Bretagna","operator":"ASPO","stop_code":"804","zone_id":"804"}},{"type":"Feature","geometry":{"type":"Point","coordinates":[9.489890000000004,40.913430000000005]},"properties":{"stop_id":"808","stop_name":"Via Messico","operator":"ASPO","stop_code":"808","zone_id":"808"}},{"type":"Feature","geometry":{"type":"Point","coordinates":[9.491910000000004,40.912150000000004]},"properties":{"stop_id":"809","stop_name":"Via Belluno 55/57","operator":"ASPO","stop_code":"809","zone_id":"809"}},{"type":"Feature","geometry":{"type":"Point","coordinates":[9.498160000000006,40.90906]},"properties":{"stop_id":"813","stop_name":"Via Vicenza","operator":"ASPO","stop_code":"813","zone_id":"813"}},{"type":"Feature","geometry":{"type":"Point","coordinates":[9.500340000000005,40.90933999999999]},"properties":{"stop_id":"814","stop_name":"Via Vicenza V.Asti","operator":"ASPO","stop_code":"814","zone_id":"814"}},{"type":"Feature","geometry":{"type":"Point","coordinates":[9.500740000000006,40.911359999999995]},"properties":{"stop_id":"815","stop_name":"Via Venafiorita","operator":"ASPO","stop_code":"815","zone_id":"815"}},{"type":"Feature","geometry":{"type":"Point","coordinates":[9.495800000000003,40.91585]},"properties":{"stop_id":"820","stop_name":"Via Roma p.zzo Pinna","operator":"ASPO","stop_code":"820","zone_id":"820"}},{"type":"Feature","geometry":{"type":"Point","coordinates":[9.498900000000004,40.91567999999999]},"properties":{"stop_id":"821","stop_name":"Sacra Famiglia","operator":"ASPO","stop_code":"821","zone_id":"821"}},{"type":"Feature","geometry":{"type":"Point","coordinates":[9.500270000000006,40.91464]},"properties":{"stop_id":"822","stop_name":"Via Roma Market","operator":"ASPO","stop_code":"822","zone_id":"822"}},{"type":"Feature","geometry":{"type":"Point","coordinates":[9.500584032571807,40.91288323987992]},"properties":{"stop_id":"823","stop_name":"Via Roma Cimitero","operator":"ASPO","stop_code":"823","zone_id":"823"}},{"type":"Feature","geometry":{"type":"Point","coordinates":[9.513610000000005,40.91013]},"properties":{"stop_id":"826","stop_name":"Via Modena V.Parma","operator":"ASPO","stop_code":"826","zone_id":"826"}},{"type":"Feature","geometry":{"type":"Point","coordinates":[9.516380000000005,40.91017]},"properties":{"stop_id":"827","stop_name":"Via Modena fr. Jesolo","operator":"ASPO","stop_code":"827","zone_id":"827"}},{"type":"Feature","geometry":{"type":"Point","coordinates":[9.519550000000006,40.91024000000001]},"properties":{"stop_id":"828","stop_name":"Via Modena","operator":"ASPO","stop_code":"828","zone_id":"828"}},{"type":"Feature","geometry":{"type":"Point","coordinates":[9.488400000000004,40.91385]},"properties":{"stop_id":"829","stop_name":"Via Pistoia, lato civ. pari","operator":"ASPO","stop_code":"829","zone_id":"829"}},{"type":"Feature","geometry":{"type":"Point","coordinates":[9.512735760215437,40.90920919622454]},"properties":{"stop_id":"830","stop_name":"SS125 Jazz Hotel","operator":"ASPO","stop_code":"830","zone_id":"830"}},{"type":"Feature","geometry":{"type":"Point","coordinates":[9.512843000000004,40.907139]},"properties":{"stop_id":"831","stop_name":"V.Astronauti CC","operator":"ASPO","stop_code":"831","zone_id":"831"}},{"type":"Feature","geometry":{"type":"Point","coordinates":[9.499671000000005,40.894617]},"properties":{"stop_id":"832","stop_name":"Cimitero Nuovo","operator":"ASPO","stop_code":"832","zone_id":"832"}},{"type":"Feature","geometry":{"type":"Point","coordinates":[9.502470000000004,40.89762]},"properties":{"stop_id":"833","stop_name":"Aviazione Generale","operator":"ASPO","stop_code":"833","zone_id":"833"}},{"type":"Feature","geometry":{"type":"Point","coordinates":[9.521610000000006,40.908139999999996]},"properties":{"stop_id":"835","stop_name":"SS125 Olbia Mare","operator":"ASPO","stop_code":"835","zone_id":"835"}},{"type":"Feature","geometry":{"type":"Point","coordinates":[9.488220000000004,40.91447000000001]},"properties":{"stop_id":"836","stop_name":"Via Gran Bretagna civ.19","operator":"ASPO","stop_code":"836","zone_id":"836"}},{"type":"Feature","geometry":{"type":"Point","coordinates":[9.500770000000003,40.909119999999994]},"properties":{"stop_id":"841","stop_name":"V.Venafiorita fr. Trib.","operator":"ASPO","stop_code":"841","zone_id":"841"}},{"type":"Feature","geometry":{"type":"Point","coordinates":[9.492120000000005,40.91443]},"properties":{"stop_id":"851","stop_name":"Via Svizzera","operator":"ASPO","stop_code":"851","zone_id":"851"}},{"type":"Feature","geometry":{"type":"Point","coordinates":[9.491380000000005,40.91556]},"properties":{"stop_id":"852","stop_name":"Via Ungheria Nespoli","operator":"ASPO","stop_code":"852","zone_id":"852"}},{"type":"Feature","geometry":{"type":"Point","coordinates":[9.489570000000004,40.91498]},"properties":{"stop_id":"853","stop_name":"Via Messico V.Austria","operator":"ASPO","stop_code":"853","zone_id":"853"}},{"type":"Feature","geometry":{"type":"Point","coordinates":[9.489950000000004,40.91345]},"properties":{"stop_id":"858","stop_name":"Via Messico","operator":"ASPO","stop_code":"858","zone_id":"858"}},{"type":"Feature","geometry":{"type":"Point","coordinates":[9.491700000000003,40.912140000000015]},"properties":{"stop_id":"859","stop_name":"Via Belluno 70","operator":"ASPO","stop_code":"859","zone_id":"859"}},{"type":"Feature","geometry":{"type":"Point","coordinates":[9.497241963779606,40.909036165393566]},"properties":{"stop_id":"863","stop_name":"Vicenza 122","operator":"ASPO","stop_code":"863","zone_id":"863"}},{"type":"Feature","geometry":{"type":"Point","coordinates":[9.500640000000008,40.90981999999998]},"properties":{"stop_id":"864","stop_name":"Fronte ex tribunale","operator":"ASPO","stop_code":"864","zone_id":"864"}},{"type":"Feature","geometry":{"type":"Point","coordinates":[9.500680000000003,40.91140999999999]},"properties":{"stop_id":"865","stop_name":"Fr. ex trib.","operator":"ASPO","stop_code":"865","zone_id":"865"}},{"type":"Feature","geometry":{"type":"Point","coordinates":[9.496580000000005,40.915169999999996]},"properties":{"stop_id":"866","stop_name":"Lituania fr. pescheria","operator":"ASPO","stop_code":"866","zone_id":"866"}},{"type":"Feature","geometry":{"type":"Point","coordinates":[9.495898636585562,40.91588374534046]},"properties":{"stop_id":"870","stop_name":"Roma Cervo","operator":"ASPO","stop_code":"870","zone_id":"870"}},{"type":"Feature","geometry":{"type":"Point","coordinates":[9.498630000000006,40.91582999999999]},"properties":{"stop_id":"871","stop_name":"Via Roma S.Famiglia","operator":"ASPO","stop_code":"871","zone_id":"871"}},{"type":"Feature","geometry":{"type":"Point","coordinates":[9.500660000000003,40.91291999999999]},"properties":{"stop_id":"873","stop_name":"Via Roma fr. Cimitero","operator":"ASPO","stop_code":"873","zone_id":"873"}},{"type":"Feature","geometry":{"type":"Point","coordinates":[9.488640000000004,40.91378999999999]},"properties":{"stop_id":"879","stop_name":"Via Pistoia lato civici dispari","operator":"ASPO","stop_code":"879","zone_id":"879"}},{"type":"Feature","geometry":{"type":"Point","coordinates":[9.512668402598928,40.9094343396118]},"properties":{"stop_id":"880","stop_name":"SS125 fr. Jazz Hotel","operator":"ASPO","stop_code":"880","zone_id":"880"}},{"type":"Feature","geometry":{"type":"Point","coordinates":[9.512989000000005,40.90702599999999]},"properties":{"stop_id":"881","stop_name":"Astronauti INPS-INAIL","operator":"ASPO","stop_code":"881","zone_id":"881"}},{"type":"Feature","geometry":{"type":"Point","coordinates":[9.511225000000003,40.912378]},"properties":{"stop_id":"892","stop_name":"Poltu Cuadu","operator":"ASPO","stop_code":"892","zone_id":"892"}},{"type":"Feature","geometry":{"type":"Point","coordinates":[9.521630000000004,40.90993000000003]},"properties":{"stop_id":"893","stop_name":"Sa Marinedda","operator":"ASPO","stop_code":"893","zone_id":"893"}},{"type":"Feature","geometry":{"type":"Point","coordinates":[9.516428000000003,40.90412200000002]},"properties":{"stop_id":"894","stop_name":"Aeroporto","operator":"ASPO","stop_code":"894","zone_id":"894"}},{"type":"Feature","geometry":{"type":"Point","coordinates":[9.50101000000001,40.910620000000016]},"properties":{"stop_id":"895","stop_name":"Via G. Vico","operator":"ASPO","stop_code":"895","zone_id":"895"}},{"type":"Feature","geometry":{"type":"Point","coordinates":[9.52411004262273,40.90815916841506]},"properties":{"stop_id":"901","stop_name":"SS125 fr. Comm","operator":"ASPO","stop_code":"901","zone_id":"901"}},{"type":"Feature","geometry":{"type":"Point","coordinates":[9.540240000000008,40.90207999999999]},"properties":{"stop_id":"903","stop_name":"SS125 Padrongianus","operator":"ASPO","stop_code":"903","zone_id":"903"}},{"type":"Feature","geometry":{"type":"Point","coordinates":[9.547350000000005,40.9022]},"properties":{"stop_id":"904","stop_name":"SS125 Lato Mater Olbia","operator":"ASPO","stop_code":"904","zone_id":"904"}},{"type":"Feature","geometry":{"type":"Point","coordinates":[9.550661229880427,40.903274042930256]},"properties":{"stop_id":"905","stop_name":"SS125 fr. lido Sole","operator":"ASPO","stop_code":"905","zone_id":"905"}},{"type":"Feature","geometry":{"type":"Point","coordinates":[9.570340000000009,40.90335999999999]},"properties":{"stop_id":"906","stop_name":"Via P. Fiaso fronte Residence","operator":"ASPO","stop_code":"906","zone_id":"906"}},{"type":"Feature","geometry":{"type":"Point","coordinates":[9.573380000000009,40.90439]},"properties":{"stop_id":"907","stop_name":"Le Saline","operator":"ASPO","stop_code":"907","zone_id":"907"}},{"type":"Feature","geometry":{"type":"Point","coordinates":[9.570210000000008,40.90357999999999]},"properties":{"stop_id":"908","stop_name":"Le Saline Residence","operator":"ASPO","stop_code":"908","zone_id":"908"}},{"type":"Feature","geometry":{"type":"Point","coordinates":[9.56689643376851,40.89494430572821]},"properties":{"stop_id":"909","stop_name":"SS125 S.Santo","operator":"ASPO","stop_code":"909","zone_id":"909"}},{"type":"Feature","geometry":{"type":"Point","coordinates":[9.58515000000001,40.89061]},"properties":{"stop_id":"910","stop_name":"SS125 fr. MarinaMaria","operator":"ASPO","stop_code":"910","zone_id":"910"}},{"type":"Feature","geometry":{"type":"Point","coordinates":[9.590100000000009,40.88936999999999]},"properties":{"stop_id":"911","stop_name":"V.le Porto Istana 12","operator":"ASPO","stop_code":"911","zone_id":"911"}},{"type":"Feature","geometry":{"type":"Point","coordinates":[9.594130000000009,40.89094000000001]},"properties":{"stop_id":"912","stop_name":"P.Istana fr.Ceraso","operator":"ASPO","stop_code":"912","zone_id":"912"}},{"type":"Feature","geometry":{"type":"Point","coordinates":[9.60212000000001,40.89366999999999]},"properties":{"stop_id":"913","stop_name":"P.Istana Ville","operator":"ASPO","stop_code":"913","zone_id":"913"}},{"type":"Feature","geometry":{"type":"Point","coordinates":[9.605330000000013,40.89413999999999]},"properties":{"stop_id":"914","stop_name":"P.Istana fr.Arcob.","operator":"ASPO","stop_code":"914","zone_id":"914"}},{"type":"Feature","geometry":{"type":"Point","coordinates":[9.61125000000001,40.894549999999995]},"properties":{"stop_id":"915","stop_name":"V.le Porto Istana","operator":"ASPO","stop_code":"915","zone_id":"915"}},{"type":"Feature","geometry":{"type":"Point","coordinates":[9.524120000000005,40.90821000000001]},"properties":{"stop_id":"951","stop_name":"SS125 lato Comm","operator":"ASPO","stop_code":"951","zone_id":"951"}},{"type":"Feature","geometry":{"type":"Point","coordinates":[9.540530000000008,40.90192999999999]},"properties":{"stop_id":"953","stop_name":"SS125 fr.Padrongianus","operator":"ASPO","stop_code":"953","zone_id":"953"}},{"type":"Feature","geometry":{"type":"Point","coordinates":[9.547250000000007,40.90222]},"properties":{"stop_id":"954","stop_name":"SS125 fr. Mater","operator":"ASPO","stop_code":"954","zone_id":"954"}},{"type":"Feature","geometry":{"type":"Point","coordinates":[9.550769561704701,40.903369476805906]},"properties":{"stop_id":"955","stop_name":"SS125 Lido del Sole","operator":"ASPO","stop_code":"955","zone_id":"955"}},{"type":"Feature","geometry":{"type":"Point","coordinates":[9.567020727564238,40.89504824798115]},"properties":{"stop_id":"959","stop_name":"SS125 fr. Spirito S.","operator":"ASPO","stop_code":"959","zone_id":"959"}},{"type":"Feature","geometry":{"type":"Point","coordinates":[9.58471000000001,40.89084]},"properties":{"stop_id":"960","stop_name":"SS125 Marina Maria","operator":"ASPO","stop_code":"960","zone_id":"960"}},{"type":"Feature","geometry":{"type":"Point","coordinates":[9.589710000000009,40.88924999999999]},"properties":{"stop_id":"961","stop_name":"V.le Porto Istana","operator":"ASPO","stop_code":"961","zone_id":"961"}},{"type":"Feature","geometry":{"type":"Point","coordinates":[9.59454000000001,40.89118]},"properties":{"stop_id":"962","stop_name":"V.le P.Istana C.Ceraso","operator":"ASPO","stop_code":"962","zone_id":"962"}},{"type":"Feature","geometry":{"type":"Point","coordinates":[9.60277000000001,40.89399]},"properties":{"stop_id":"963","stop_name":"V.le P.Istana V.D.Ville","operator":"ASPO","stop_code":"963","zone_id":"963"}},{"type":"Feature","geometry":{"type":"Point","coordinates":[9.605800000000011,40.89422999999999]},"properties":{"stop_id":"964","stop_name":"V.le P.Istana Arcob.","operator":"ASPO","stop_code":"964","zone_id":"964"}},{"type":"Feature","geometry":{"type":"Point","coordinates":[9.611520000000011,40.89464999999999]},"properties":{"stop_id":"965","stop_name":"P.Istana fr. P.Hotel","operator":"ASPO","stop_code":"965","zone_id":"965"}},{"type":"Feature","geometry":{"type":"Point","coordinates":[9.613900000000013,40.89467999999999]},"properties":{"stop_id":"991","stop_name":"Porto Istana","operator":"ASPO","stop_code":"991","zone_id":"991"}}]}